Airport_Code,Airport_Name,City_Name,Country_Name,Country_Code,Latitude,Longitude
BIN,Bamiyan,Bamiyan,Afghanistan,AF,34.8,67.816667
BST,Bost,Bost,Afghanistan,AF,31.55,64.366667
CCN,Chakcharan,Chakcharan,Afghanistan,AF,34.533333,65.266667
DAZ,Darwaz,Darwaz,Afghanistan,AF,38.466667,70.883333
FBD,Faizabad,Faizabad,Afghanistan,AF,37.083333,70.5
FAH,Farah,Farah,Afghanistan,AF,32.366667,62.166667
GRG,Gardez,Gardez,Afghanistan,AF,33.616667,69.116667
GZI,Ghazni,Ghazni,Afghanistan,AF,33,68.416667
HEA,Herat,Herat,Afghanistan,AF,34.183333,62.233333
JAA,Jalalabad,Jalalabad,Afghanistan,AF,34.4,70.5
KDH,Kandahar,Kandahar,Afghanistan,AF,31.5,65.85
KHT,Khost,Khost,Afghanistan,AF,33.333333,69.95
KWH,Khwahan,Khwahan,Afghanistan,AF,37.883333,70.2
KBL,Khwaja Rawash,Kabul,Afghanistan,AF,34.565833,69.212222
UND,Kunduz,Kunduz,Afghanistan,AF,36.65,68.883333
KUR,Kuran-O-Munjan,Kuran-O-Munjan,Afghanistan,AF,38.4,71.116667
MMZ,Maimana,Maimana,Afghanistan,AF,35.916667,64.733333
MZR,Mazar-i-sharif,Mazar-i-sharif,Afghanistan,AF,36.706944,67.209722
IMZ,Nimroz,Nimroz,Afghanistan,AF,31.1,61.933333
LQN,Qala Nau,Qala Nau,Afghanistan,AF,34.95,63.666667
SBF,Sardeh Band,Sardeh Band,Afghanistan,AF,33.297778,68.631667
SGA,Sheghnan,Sheghnan,Afghanistan,AF,38.033333,71.716667
TQN,Taluqan,Taluqan,Afghanistan,AF,36.5,69.5
TII,Tirinkot,Tirinkot,Afghanistan,AF,32.628611,65.8775
URZ,Uruzgan,Uruzgan,Afghanistan,AF,32.9,66.616667
ZAJ,Zaranj,Zaranj,Afghanistan,AF,31.1,61.883333
RDB,Red Dog,Red Dog,Alaska,US,68.032222,-162.899167
TIA,Rinas Mother Teresa,Tirana,Albania,AL,41.414722,19.720556
AZR,Adrar,Adrar,Algeria,DZ,27.883333,-0.283333
TMR,Aguemar,Tamanrasset,Algeria,DZ,37.063611,6.5275
OGX,Ain Beida,Ouargla,Algeria,DZ,31.916667,5.4
BUJ,Ain Eddis,Boussaada,Algeria,DZ,35.3325,4.206389
CZL,Ain El Bey,Constantine,Algeria,DZ,36.285278,6.619167
BLJ,Batna,Batna,Algeria,DZ,35.55,6.166667
BJA,Bejaia,Bejaia,Algeria,DZ,36.75,5.083333
BSK,Biskra,Biskra,Algeria,DZ,34.8,5.733333
BMW,Bordj Badji Mokhtar,Bordj Badji Mokhtar,Algeria,DZ,21.133333,1.066667
TID,Bouchekif Abde Al-hafidh Boussof,Tiaret,Algeria,DZ,14.1,-16.483333
ELG,Djamet,El Golea,Algeria,DZ,30.571389,2.859722
ORN,Es Senia,Oran,Algeria,DZ,35.616667,-0.616667
GBB,Gara Djebilet,Gara Djebilet,Algeria,DZ,26.15,-7.35
ELU,Guemar,El Oued,Algeria,DZ,33.516667,6.783333
ALG,Houari Boumediene,Algiers,Algeria,DZ,36.783333,3.05
VVZ,Illizi,Illizi,Algeria,DZ,26.483333,8.466667
IAM,In Amenas,In Amenas,Algeria,DZ,28.051667,9.642778
INZ,In Salah,In Salah,Algeria,DZ,27.25,2.516667
DJG,Inedbirenne,Djanet,Algeria,DZ,24.45,9.5
GJL,Jijel,Jijel,Algeria,DZ,36.8,5.883333
KDF,Kouba,Kouba,Algeria,DZ,7.8,15.65
CBH,Leger,Bechar,Algeria,DZ,31.65,-2.25
AAE,Les Salines,Annaba,Algeria,DZ,36.833333,8
MUW,Mascara,Mascara,Algeria,DZ,35.75,0.016667
MZW,Mechria,Mechria,Algeria,DZ,33.55,-0.283333
MQV,Mostaganem,Mostaganem,Algeria,DZ,43.247778,17.785556
INF,Newark Liberty International,In Guezzam,Algeria,DZ,19.566667,5.75
GHA,Noumerate,Ghardaia,Algeria,DZ,32.383333,3.816667
HME,Oued Irara Apt,Hassi Messaoud,Algeria,DZ,31.666667,6.15
QSF,Setif,Setif,Algeria,DZ,36.191389,5.409444
SKI,Skikda,Skikda,Algeria,DZ,36.869444,6.95
TAF,Tafaraoui,Oran,Algeria,DZ,35.716667,-0.716667
TMX,Timimoun,Timimoun,Algeria,DZ,29.25,-0.25
TIN,Tindouf,Tindouf,Algeria,DZ,27.674167,-8.147778
TGR,Touggourt,Touggourt,Algeria,DZ,33.1,6.066667
TLM,Zenata,Tlemcen,Algeria,DZ,34.878333,-1.315
FTI,Fitiuta,Fitiuta,American Samoa,AS,-14.216667,-169.45
PPG,International,Pago Pago,American Samoa,AS,-14.333333,-170.716667
OFU,Ofu,Ofu,American Samoa,AS,-14.183333,-169.7
TAV,Tau,Tau,American Samoa,AS,-14.229167,-169.511111
ALV,Andorra La Vella H/P,Andorra La Vella,Andorra,AD,42.5,1.516667
LAD,4 de Fevereiro,Luanda,Angola,AO,-8.85,13.233333
AZZ,Ambriz,Ambriz,Angola,AO,-7.883333,13.15
AAZ,Ambriz,Ambriz,Angola,AO,-7.862222,13.116111
ANL,Andulo,Andulo,Angola,AO,-11.5,16.75
CAB,Cabinda,Cabinda,Angola,AO,-5.55,12.183333
CFF,Cafunfo,Cafunfo,Angola,AO,-8.766667,18
CNZ,Cangamba,Cangamba,Angola,AO,-13.683333,19.883333
KNP,Capanda,Capanda,Angola,AO,-9.766944,15.450278
CBT,Catumbela,Catumbela,Angola,AO,-12.483333,13.483333
CAV,Cazombo,Cazombo,Angola,AO,-11.883333,22.933333
PGI,Chitato,Chitato,Angola,AO,-7.35,20.95
CTI,Cuito Cuanavale,Cuito Cuanavale,Angola,AO,-15.166667,19.166667
DRC,Dirico,Dirico,Angola,AO,-17.966667,20.783333
DUE,Dundo,Dundo,Angola,AO,-7.4,20.816667
BUG,Gen V Deslandes,Benguela,Angola,AO,-12.608889,13.403611
NOV,Huambo,Huambo,Angola,AO,-12.783333,15.766667
JMB,Jamba,Jamba,Angola,AO,-14.700278,16.083333
SVP,Kuito,Kuito,Angola,AO,-12.404722,16.9475
UAL,Luau,Luau,Angola,AO,-10.783333,20.5
SDD,Lubango,Lubango,Angola,AO,-14.916667,13.483333
LUO,Luena,Luena,Angola,AO,-11.768056,19.897778
LBZ,Lukapa,Lukapa,Angola,AO,-8.416667,20.75
GGC,Lumbala,Lumbala,Angola,AO,-14.116667,21.433333
LZM,Luzamba,Luzamba,Angola,AO,-4.966667,23.45
MEG,Malange,Malange,Angola,AO,-9.533333,16.333333
SPP,Menongue,Menongue,Angola,AO,-14.633333,17.733333
MSZ,Namibe,Namibe,Angola,AO,-15.208611,12.160833
NDF,Ndalatandos,Ndalatandos,Angola,AO,-13.783333,16.716667
GXG,Negage,Negage,Angola,AO,-7.516667,15.833333
NGV,Ngiva,Ngiva,Angola,AO,23.076111,34.374444
VPE,Ongiva,Ongiva,Angola,AO,-17.05,15.6
PBN,Porto Amboim,Porto Amboim,Angola,AO,-10.7,13.75
VHC,Saurimo,Saurimo,Angola,AO,-9.75,20.55
SZA,Soyo,Soyo,Angola,AO,-6.146389,12.363889
NDD,Sumbe,Sumbe,Angola,AO,-11.166667,13.866667
UGO,Uige,Uige,Angola,AO,-7.583333,14.983333
CEO,Waco Kungo,Waco Kungo,Angola,AO,-13.333333,14.5
XGN,Xangongo,Xangongo,Angola,AO,-16.75,14.967222
AXA,Wallblake,Anguilla,Anguilla,AI,18.204722,-63.055
TNM,Teniente R. Marsh Martin,Teniente R. Marsh Martin,Antarctica,AQ,62.190833,-58.986667
BBQ,Barbuda,Barbuda,Antigua and Barbuda,AG,17.6,-61.783333
ANU,V. C. Bird Intl,St. John's,Antigua And Barbuda,AG,17.136667,-61.792778
REL,Almirante Zar,Trelew,Argentina,AR,-43.210556,-65.270278
ARR,Alto Rio Senguerr,Alto Rio Senguerr,Argentina,AR,-45.166667,-71
AEP,Arpt. Jorge Newbery,Buenos Aires,Argentina,AR,-34.559167,-58.415556
TUC,Benj Matienzo,Tucuman,Argentina,AR,-26.816667,-65.216667
CSZ,Brigadier Hector Ruiz,Coronel Suarez,Argentina,AR,-37.466667,-61.916667
CVI,Caleta Olivia,Caleta Olivia,Argentina,AR,-46.433333,-67.516667
CNQ,Camba Punta,Corrientes,Argentina,AR,-27.45,-58.766667
IRJ,Capitan Vicente Almando,La Rioja,Argentina,AR,-29.381667,-66.795833
CPG,Carmen De Patagones,Carmen De Patagones,Argentina,AR,-40.8,-62.983333
CTC,Catamarca,Catamarca,Argentina,AR,-28.448333,-65.779722
IGR,Cataratas,Iguazu,Argentina,AR,-25.583333,-54.333333
CVH,Caviahue,Caviahue,Argentina,AR,-37.916667,-71.013889
CRR,Ceres,Ceres,Argentina,AR,-29.866667,-61.833333
CPC,Chapelco,San Martin DeLos Andes,Argentina,AR,-40.083333,-71.133333
CNT,Charata,Charata,Argentina,AR,-27.216667,-61.216667
CLX,Clorinda,Clorinda,Argentina,AR,-25.333333,-57.666667
CCT,Colonia Catriel,Colonia Catriel,Argentina,AR,-37.85,-67.866667
OLN,Colonia Sarmiento,Colonia Sarmiento,Argentina,AR,-45.583333,-69
BHI,Comandante,Bahia Blanca,Argentina,AR,-38.716667,-62.183333
CRD,Comodoro Rivadavia,Comodoro Rivadavia,Argentina,AR,-45.783333,-67.466667
COC,Concordia,Concordia,Argentina,AR,-31.3,-58.016667
UZU,Curuzu Cuatia,Curuzu Cuatia,Argentina,AR,-29.783333,-58.016667
CUT,Cutral,Cutral,Argentina,AR,-38.966667,-69.25
EHL,El Bolson,El Bolson,Argentina,AR,-41.966667,-71.516667
JUJ,El Cadillal,Jujuy,Argentina,AR,-24.233333,-65.266667
FTE,El Calafate,El Calafate,Argentina,AR,-50.280278,-72.053056
EMX,El Maiten,El Maiten,Argentina,AR,-42.068056,-71.155556
EPA,El Palomar,El Palomar,Argentina,AR,-28.083333,-64.283333
MDZ,El Plumerillo,Mendoza,Argentina,AR,-32.833333,-68.783333
FMA,El Pucu,Formosa,Argentina,AR,-26.212778,-58.228056
PMY,El Tehuelche,Puerto Madryn,Argentina,AR,-42.733333,-65.066667
ELO,Eldorado,Eldorado,Argentina,AR,-26.4,-54.633333
EQS,Esquel,Esquel,Argentina,AR,-42.916667,-71.15
EZE,Ezeiza Ministro Pistarini,Buenos Aires,Argentina,AR,-34.822222,-58.535833
ROS,Fisherton,Rosario,Argentina,AR,-32.833333,-60.716667
SLA,Gen Belgrano,Salta,Argentina,AR,-24.85,-65.483333
GPO,General Pico,General Pico,Argentina,AR,-35.7,-63.75
GNR,General Roca,General Roca,Argentina,AR,-39.033333,-67.583333
VGS,General Villegas,General Villegas,Argentina,AR,-35.033333,-63.016667
GGS,Gobernador Gregores,Gobernador Gregores,Argentina,AR,-48.766667,-70.2
OYA,Goya,Goya,Argentina,AR,-29.1,-59.25
GHU,Gualeguaychu,Gualeguaychu,Argentina,AR,-33.016667,-58.583333
IGB,Ingeniero Jacobacci,Ingeniero Jacobacci,Argentina,AR,-41.3,-69.583333
RGL,Internacional,Rio Gallegos,Argentina,AR,-51.65,-69.2
BRC,International,San Carlos DeBariloche,Argentina,AR,-41.133333,-71.166667
USH,Islas Malvinas,Ushuaia,Argentina,AR,-54.843333,-68.295833
JSM,Jose De San Martin,Jose De San Martin,Argentina,AR,-44.033333,-70.466667
JNI,Junin,Junin,Argentina,AR,-34.583333,-60.966667
LCM,La Cumbre,La Cumbre,Argentina,AR,-31,-64.533333
LPG,La Plata,La Plata,Argentina,AR,-34.916667,-57.95
ING,Lago Argentino,Lago Argentino,Argentina,AR,-50.333333,-72.25
LHS,Las Heras,Las Heras,Argentina,AR,-46.533333,-68.95
LLS,Las Lomitas,Las Lomitas,Argentina,AR,-24.7,-60.6
LCP,Loncopue,Loncopue,Argentina,AR,-38.066667,-70.616667
LMD,Los Menucos,Los Menucos,Argentina,AR,-40.833333,-68.133333
LGS,Malargue,Malargue,Argentina,AR,-35.493611,-69.574167
MQD,Maquinchao,Maquinchao,Argentina,AR,-41.25,-68.733333
MDQ,Mar Del Plata,Mar Del Plata,Argentina,AR,-37.934167,-57.573333
MDX,Mercedes,Mercedes,Argentina,AR,-29.216944,-58.083333
MJR,Miramar,Miramar,Argentina,AR,-38.216667,-57.866667
MCS,Monte Caseros,Monte Caseros,Argentina,AR,-30.266667,-57.633333
NEC,Necochea,Necochea,Argentina,AR,-38.666667,-58.75
NQN,Neuquen,Neuquen,Argentina,AR,-38.95,-68.133333
OVR,Olavarria,Olavarria,Argentina,AR,-35.7,-63
ORA,Oran,Oran,Argentina,AR,-23.15,-64.316667
COR,Pajas Blancas,Cordoba,Argentina,AR,-31.316667,-64.216667
PRA,Parana,Parana,Argentina,AR,-31.783333,-60.483333
AOL,Paso De Los Libres,Paso De Los Libres,Argentina,AR,-29.683333,-57.15
PEH,Pehuajo,Pehuajo,Argentina,AR,-35.8,-61.883333
PMQ,Perito Moreno,Perito Moreno,Argentina,AR,-46.535,-70.983333
PSS,Posadas,Posadas,Argentina,AR,-27.416667,-55.95
PRQ,Pres. Roque Saenz Pena,Pres. Roque Saenz Pena,Argentina,AR,-26.766667,-60.266667
PUD,Puerto Deseado,Puerto Deseado,Argentina,AR,-47.716667,-65.916667
RCQ,Reconquista,Reconquista,Argentina,AR,-29.183333,-59.7
RES,Resistencia,Resistencia,Argentina,AR,-27.466667,-58.983333
RCU,Rio Cuarto,Rio Cuarto,Argentina,AR,-33.1,-64.266667
RGA,Rio Grande,Rio Grande,Argentina,AR,-53.783333,-67.766667
RHD,Rio Hondo,Rio Hondo,Argentina,AR,-27.466667,-64.916667
ROY,Rio Mayo,Rio Mayo,Argentina,AR,-45.719444,-70.251389
RYO,Rio Turbio,Rio Turbio,Argentina,AR,-51.6,-72.216667
SZQ,Saenz Pena,Saenz Pena,Argentina,AR,-34.616667,-58.533333
OES,San Antonio Oeste,San Antonio Oeste,Argentina,AR,-40.733333,-64.933333
UAQ,San Juan,San Juan,Argentina,AR,-31.6,-68.55
ULA,San Julian,San Julian,Argentina,AR,-49.3,-67.75
LUQ,San Luis,San Luis,Argentina,AR,-33.266667,-66.333333
AFA,San Rafael,San Rafael,Argentina,AR,-34.583333,-68.4
RZA,Santa Cruz,Santa Cruz,Argentina,AR,-50.033333,-68.583333
SFN,Santa Fe,Santa Fe,Argentina,AR,-31.716667,-60.816667
RSA,Santa Rosa,Santa Rosa,Argentina,AR,-36.616667,-64.283333
SST,Santa Teresita,Santa Teresita,Argentina,AR,-35.266667,-59.633333
SDE,Santiago Del Estero,Santiago Del Estero,Argentina,AR,-27.766667,-64.283333
SGV,Sierra Grande,Sierra Grande,Argentina,AR,-41.5,-65.35
TDL,Tandil,Tandil,Argentina,AR,-37.233333,-59.216667
TTG,Tartagal,Tartagal,Argentina,AR,-26.216667,-64.15
VCF,Valcheta,Valcheta,Argentina,AR,-40.7,-66.15
RLO,Valle Del Conlara,Merlo,Argentina,AR,-32.35,-65.033333
VDM,Viedma,Viedma,Argentina,AR,-40.85,-63.016667
VDR,Villa Dolores,Villa Dolores,Argentina,AR,-31.95,-65.15
VLG,Villa Gesell,Villa Gesell,Argentina,AR,-38.016667,-57.583333
VME,Villa Mercedes,Villa Mercedes,Argentina,AR,-33.633333,-65.416667
APZ,Zapala,Zapala,Argentina,AR,-38.916667,-70.083333
LWN,Gyoumri,Gyoumri,Armenia,AM,40.716667,43.833333
EVN,Zvartnots,Yerevan,Armenia,AM,40.147222,44.395833
AUA,Reina Beatrix,Aruba,Aruba,AW,12.5,-70.016667
VCD,Victoria River Downs,Victoria River Downs,Australia,AU,-16.405,131.003333
ABG,Abingdon,Abingdon,Australia,AU,-17.666667,143.2
ADL,Adelaide International Airport,Adelaide,Australia,AU,-34.945,138.530556
XHX,Adelaide Keswick Rail,Adelaide,Australia,AU,-33.1375,136.303056
AGW,Agnew,Agnew,Australia,AU,-12.15,142.15
ALH,Albany,Albany,Australia,AU,-34.95,117.8
ABX,Albury,Albury,Australia,AU,-36.066667,146.95
AXL,Alexandria,Alexandria,Australia,AU,-19.116667,136.766667
ASP,Alice Springs,Alice Springs,Australia,AU,-23.8,133.883333
XHW,Alice Springs Railway,Alice Springs,Australia,AU,-23.566667,145.8
ABH,Alpha,Alpha,Australia,AU,-23.7,146.583333
AYD,Alroy Downs,Alroy Downs,Australia,AU,-19.3,135.95
AWN,Alton Downs,Alton Downs,Australia,AU,-26.483333,139.316667
GTE,Alyangula,Groote Eylandt,Australia,AU,-14,136.5
AMT,Amata,Amata,Australia,AU,-26.2,131.116667
RCN,American River,American River,Australia,AU,-35.783333,137.783333
AMX,Ammaroo,Ammaroo,Australia,AU,-21.74,135.24
ADO,Andamooka,Andamooka,Australia,AU,-30.437778,137.137222
ANZ,Angus Downs,Angus Downs,Australia,AU,-25.083333,132.166667
AYL,Anthony Lagoon,Anthony Lagoon,Australia,AU,-18.016667,135.55
AXC,Aramac,Aramac,Australia,AU,-23.083333,145.25
ARY,Ararat,Ararat,Australia,AU,-37.309444,142.988611
GYL,Argyle,Argyle,Australia,AU,-16.640833,128.45
AGY,Argyle Downs,Argyle Downs,Australia,AU,-16.35,128.75
ARM,Armidale,Armidale,Australia,AU,-30.533333,151.616667
AAB,Arrabury,Arrabury,Australia,AU,-26.75,141
AUD,Augustus Downs,Augustus Downs,Australia,AU,-18.666667,139.933333
AUU,Aurukun Mission,Aurukun Mission,Australia,AU,-13.353889,141.720833
AWP,Austral Downs,Austral Downs,Australia,AU,-20.333333,137.25
AVG,Auvergne,Auvergne,Australia,AU,-15.75,129.916667
AVV,Avalon,Geelong,Australia,AU,-38.033333,144.466667
AYR,Ayr,Ayr,Australia,AU,-19.666667,147.366667
BDD,Badu Island,Badu Island,Australia,AU,-10.116667,142.133333
BSJ,Bairnsdale,Bairnsdale,Australia,AU,-37.883333,147.566667
LCN,Balcanoona,Balcanoona,Australia,AU,-30.533333,139.316667
BQW,Balgo Hills,Balgo Hills,Australia,AU,-20.133333,127.8
BNK,Ballina Byron Gateway,Ballina,Australia,AU,-28.868889,153.5625
BZD,Balranald,Balranald,Australia,AU,-34.633333,143.55
ABM,Bamaga Injinoo,"Bamaga, Queensland",Australia,AU,-10.950833,142.459444
BYX,Baniyala,Baniyala,Australia,AU,-13.2,136.233333
BCI,Barcaldine,Barcaldine,Australia,AU,-23.666667,145.333333
BKP,Barkly Downs,Barkly Downs,Australia,AU,-21.033333,138.25
BWB,Barrow Island,Barrow Island,Australia,AU,-20.8,115.383333
BVW,Batavia Downs,Batavia Downs,Australia,AU,-12.45,143.25
BRT,Bathurst Island,Bathurst Island,Australia,AU,-11.766667,130.633333
BEE,Beagle Bay,Beagle Bay,Australia,AU,-12.983333,141.6
BDW,Bedford Downs,Bedford Downs,Australia,AU,-17.3,127.466667
BEU,Bedourie,Bedourie,Australia,AU,-24.333333,139.366667
BXF,Belburn,Belburn,Australia,AU,64.233333,12.5
BEO,Belmont,Newcastle,Australia,AU,-33.033333,151.666667
BLN,Benalla,Benalla,Australia,AU,-36.55,145.983333
BXG,Bendigo,Bendigo,Australia,AU,-36.739444,144.329722
BTX,Betoota,Betoota,Australia,AU,-25.633333,140.8
BVZ,Beverley Springs,Beverley Springs,Australia,AU,-17.983333,125.45
BCZ,Bickerton Island,Bickerton Island,Australia,AU,-13.783333,137.8
BBE,Big Bell,Big Bell,Australia,AU,-27.416667,117.666667
BIW,Billiluna,Billiluna,Australia,AU,-19.583333,127.633333
ZBL,Biloela,Biloela,Australia,AU,-24.4,150.5
BVI,Birdsville,"Birdsville, Queensland",Australia,AU,-25.8975,139.3475
BZP,Bizant,Bizant,Australia,AU,-15.216667,144.633333
BKQ,Blackall,Blackall,Australia,AU,-24.416667,145.416667
BLT,Blackwater,Blackwater,Australia,AU,-23.583333,148.883333
BFC,Bloomfield,Bloomfield,Australia,AU,-15.9,145.333333
GIC,Boigu Island,Boigu Island,Australia,AU,-9.266667,142.2
BLS,Bollon,Bollon,Australia,AU,-28.033333,147.366667
BCK,Bolwarra,Bolwarra,Australia,AU,-17.4,144.166667
BOX,Borroloola,Borroloola,Australia,AU,-16.083333,136.3
BQL,Boulia,Boulia,Australia,AU,-22.966667,139.966667
BRK,Bourke,Bourke,Australia,AU,-30.05,145.95
ZBO,Bowen,Bowen,Australia,AU,-20.016667,148.216667
BMP,Brampton Island,Brampton Island,Australia,AU,-20.783333,149.233333
BWQ,Brewarrina,Brewarrina,Australia,AU,-29.966667,146.816667
BRJ,Bright,Bright,Australia,AU,-36.733333,146.966667
BHT,Brighton Downs,Brighton Downs,Australia,AU,-23.5,141.633333
BNE,Brisbane International,Brisbane,Australia,AU,-27.383333,153.116667
BHQ,Broken Hill,Broken Hill,Australia,AU,-32,141.466667
BME,Broome,"Broome, Western Australia",Australia,AU,-17.944722,122.231667
BTD,Brunette Downs,Brunette Downs,Australia,AU,-18.633333,135.933333
BIP,Bulimba,Bulimba,Australia,AU,-16.15,143.75
BUY,Bunbury,Bunbury,Australia,AU,-33.378333,115.676667
BDB,Bundaberg,Bundaberg,Australia,AU,-24.903889,152.318611
BUC,Burketown,Burketown,Australia,AU,-17.75,139.533333
BWT,Burnie Wynyard,Burnie,Australia,AU,-41,145.733333
BQB,Bussellton,Bussellton,Australia,AU,-33.6925,115.395278
CGV,Caiguna,Caiguna,Australia,AU,-32.266667,125.466667
CNS,Cairns,Cairns,Australia,AU,-16.883333,145.75
CUD,Caloundra,Caloundra,Australia,AU,-26.8,153.15
CDU,Camden,Camden,Australia,AU,-34.040278,150.687222
CFI,Camfield,Camfield,Australia,AU,-17.15,131.35
CML,Camooweal,Camooweal,Australia,AU,-19.916667,138.133333
CBR,Canberra,Canberra,Australia,AU,-35.306944,149.195
CBY,Canobie,Canobie,Australia,AU,-19.633333,140.916667
CBI,Cape Barren Island,Cape Barren Island,Australia,AU,-31.983333,132.15
CQP,Cape Flattery,Cape Flattery,Australia,AU,-18.2,147.5
CRY,Carlton Hill,Carlton Hill,Australia,AU,-15.7,128.5
CVQ,Carnarvon,Carnarvon,Australia,AU,-24.883333,113.666667
CFP,Carpentaria Downs,Carpentaria Downs,Australia,AU,-18.783333,144.35
CTR,Cattle Creek,Cattle Creek,Australia,AU,-17.583333,131
CED,Ceduna,Ceduna,Australia,AU,-32.133333,133.683333
CES,Cessnock,Cessnock,Australia,AU,-32.083333,151.083333
CTL,Charleville,Charleville,Australia,AU,-26.416667,146.266667
CXT,Charters Towers,Charters Towers,Australia,AU,-20.05,146.266667
CBC,Cherrabun,Cherrabun,Australia,AU,-18.666667,125.366667
CRH,Cherribah,Cherribah,Australia,AU,-27.65,151.95
LLG,Chillagoe,Chillagoe,Australia,AU,-17.133333,144.533333
CCL,Chinchilla,Chinchilla,Australia,AU,-26.783333,150.616667
CXQ,Christmas Creek,Christmas Creek,Australia,AU,-18.916667,125.916667
KAH,City Heliport,Melbourne,Australia,AU,-37.716667,145
CMQ,Clermont,Clermont,Australia,AU,-22.866667,147.5
CVC,Cleve,Cleve,Australia,AU,-33.7,136.5
CFH,Clifton Hills,Clifton Hills,Australia,AU,-26.516667,139.45
CNJ,Cloncurry,Cloncurry,Australia,AU,-20.668611,140.504444
CZY,Cluny,Cluny,Australia,AU,-24.5,139.5
CAZ,Cobar,Cobar,Australia,AU,-31.533333,145.8
CNC,Coconut Island,Coconut Island,Australia,AU,-10.05,143.066667
CUQ,Coen,Coen,Australia,AU,-13.783333,143.116667
CFS,Coffs Harbour,Coffs Harbour,Australia,AU,-30.320556,153.116389
XCO,Colac,Colac,Australia,AU,-38.333333,143.583333
CRB,Collarenebri,Collarenebri,Australia,AU,-29.525833,148.575833
CIE,Collie,Collie,Australia,AU,-33.35,116.15
KCE,Collinsville,Collinsville,Australia,AU,-20.55,147.866667
CBX,Condobolin,Condobolin,Australia,AU,-33.066667,147.2
AYQ,Connellan,Ayers Rock,Australia,AU,-25.333333,131.033333
CPD,Coober Pedy,Coober Pedy,Australia,AU,-29.05,134.75
CDA,Cooinda,Cooinda,Australia,AU,-12.9,132.516667
CTN,Cooktown,Cooktown,Australia,AU,-15.45,145.183333
CLH,Coolah,Coolah,Australia,AU,-31.833333,149.7
COY,Coolawanyah,Coolawanyah,Australia,AU,-21.8,117.766667
COB,Coolibah,Coolibah,Australia,AU,-15.666667,130.966667
OOM,Cooma,Cooma,Australia,AU,-36.3,148.966667
COJ,Coonabarabran,Coonabarabran,Australia,AU,-31.333333,149.266667
CNB,Coonamble,Coonamble,Australia,AU,-30.983333,148.383333
CRJ,Coorabie,Coorabie,Australia,AU,-31.9,132.3
CMD,Cootamundra,Cootamundra,Australia,AU,-34.633333,148.05
ODL,Cordillo Downs,Cordillo Downs,Australia,AU,-26.833333,140.75
CWW,Corowa,Corowa,Australia,AU,-35.983333,146.35
CYG,Corryong,Corryong,Australia,AU,-36.25,147.9
CWR,Cowarie,Cowarie,Australia,AU,-27.716667,138.333333
CCW,Cowell,Cowell,Australia,AU,-33.666667,136.9
CWT,Cowra,Cowra,Australia,AU,-33.85,148.65
CSD,Cresswell Downs,Cresswell Downs,Australia,AU,-17.966667,135.916667
CKI,Croker Island,Croker Island,Australia,AU,-11.083333,132.5
CDQ,Croydon,Croydon,Australia,AU,-18.3,142.25
CUG,Cudal,Cudal,Australia,AU,-33.3,148.702778
CUY,Cue,Cue,Australia,AU,-27.45,117.916667
CMA,Cunnamulla,Cunnamulla,Australia,AU,-28.033333,145.616667
DBY,Dalby,Dalby,Australia,AU,-27.155278,151.267222
DGD,Dalgaranga,Dalgaranga,Australia,AU,-27.766667,117.033333
DVR,Daly River,Daly River,Australia,AU,-13.75,130.683333
DYW,Daly Waters,Daly Waters,Australia,AU,-16.266667,133.366667
NLF,Darnley Island,Darnley Island,Australia,AU,-9.566667,143.75
DRW,Darwin,Darwin,Australia,AU,-12.416667,130.866667
XJG,Darwin Railway,Darwin,Australia,AU,-33.1,-57.633333
DAJ,Dauan Island,Dauan Island,Australia,AU,-9.433333,142.516667
DVP,Davenport Downs,Davenport Downs,Australia,AU,-24.166667,141.083333
DDI,Daydream Is,Daydream Is,Australia,AU,-20.166667,148.183333
DLV,Delissaville,Delissaville,Australia,AU,-12.416667,130.341667
DDN,Delta Downs,Delta Downs,Australia,AU,-16.916667,141.3
DNM,Denham,Denham,Australia,AU,-25.916667,113.533333
DNQ,Deniliquin,Deniliquin,Australia,AU,-35.55,144.95
DRB,Derby,Derby,Australia,AU,-17.366667,123.65
DPO,Devonport,Devonport,Australia,AU,-41.166667,146.416667
DYM,Diamantina Lakes,Diamantina Lakes,Australia,AU,-23.866667,141.25
DRN,Dirranbandi,Dirranbandi,Australia,AU,-28.5,148.258333
DXD,Dixie,Dixie,Australia,AU,-15.166667,143.666667
DKV,Docker River,Docker River,Australia,AU,-24.866667,129.116667
DOX,Dongara,Dongara,Australia,AU,-29.25,114.933333
DMD,Doomadgee,Doomadgee,Australia,AU,-18,138.833333
DNG,Doongan,Doongan,Australia,AU,13.662778,122.3275
DRD,Dorunda Station,Dorunda Station,Australia,AU,-16.516667,142.366667
DFP,Drumduff,Drumduff,Australia,AU,-16,143.033333
DBO,Dubbo,Dubbo,Australia,AU,-32.217222,148.574722
DLK,Dulkaninna,Dulkaninna,Australia,AU,-29.016667,139.466667
DNB,Dunbar,Dunbar,Australia,AU,-16.083333,142.416667
DKI,Dunk Island,Dunk Island,Australia,AU,-17.933333,146.166667
SRR,Dunwich,Stradbroke Island,Australia,AU,47.266667,10.783333
DHD,Durham Downs,Durham Downs,Australia,AU,-27.066667,141.916667
DRR,Durrie,Durrie,Australia,AU,-25.6,140.25
DYA,Dysart,Dysart,Australia,AU,-22.533333,149.383333
ECH,Echuca,Echuca,Australia,AU,-36.15,144.75
EDR,Edward River,Edward River,Australia,AU,-14.9,141.616667
EIH,Einasleigh,Einasleigh,Australia,AU,-18.5,144.1
ELC,Elcho Island,Elcho Island,Australia,AU,-12.016667,135.566667
EKD,Elkedra,Elkedra,Australia,AU,-21.033333,135.25
EMD,Emerald,Emerald,Australia,AU,-23.633333,148.133333
ENB,Eneabba West,Eneabba West,Australia,AU,-30.083333,114.983333
EDD,Erldunda,Erldunda,Australia,AU,-25.25,133.2
ERB,Ernabella,Ernabella,Australia,AU,-26.266667,132.166667
EPR,Esperance,Esperance,Australia,AU,-33.683333,121.816667
MEB,Essendon,Melbourne,Australia,AU,-37.7,144.866667
ETD,Etadunna,Etadunna,Australia,AU,-28.716667,138.633333
EUC,Eucla,Eucla,Australia,AU,-31.716667,128.866667
EVD,Eva Downs,Eva Downs,Australia,AU,-18.083333,134.866667
EVH,Evans Head,Evans Head,Australia,AU,-29.1,153.416667
EXM,Exmouth Gulf,Exmouth Gulf,Australia,AU,-22.383333,114.116667
FLC,Falls Creek,Falls Creek,Australia,AU,-34.983333,150.6
FIK,Finke,Finke,Australia,AU,-25.583333,134.6
FLY,Finley,Finley,Australia,AU,-35.65,145.583333
FIZ,Fitzroy Crossing,Fitzroy Crossing,Australia,AU,-18.166667,125.55
FLS,Flinders Island,Flinders Island,Australia,AU,-40.083333,148
FVL,Flora Valey,Flora Valley,Australia,AU,-18.333333,128
FRB,Forbes,Forbes,Australia,AU,-33.383333,148.016667
FOS,Forrest,Forrest,Australia,AU,-30.838056,128.115
WGA,Forrest Hill,Wagga Wagga,Australia,AU,-35.166667,147.466667
FVR,Forrest River Airport,Forrest River,Australia,AU,-15.3,128.066667
FOT,Forster,Forster,Australia,AU,32.183333,152.516667
FSL,Fossil Downs,Fossil Downs,Australia,AU,-18.2,125.75
OKB,Fraser Island,Orchid Beach,Australia,AU,-25,153.283333
GBP,Gamboola,Gamboola,Australia,AU,-16.55,143.666667
GPN,Garden Point,Garden Point,Australia,AU,-11.4,130.433333
GSC,Gascoyne Junction,Gascoyne Junction,Australia,AU,-25.05,115.2
GAH,Gayndah,Gayndah,Australia,AU,-25.616667,151.616667
GEX,Geelong,Geelong,Australia,AU,-38.133333,144.35
GTT,Georgetown,Georgetown,Australia,AU,-18.416667,143.783333
GET,Geraldton,Geraldton,Australia,AU,-28.783333,114.7
GBV,Gibb River,Gibb River,Australia,AU,-16.333333,126.366667
GLT,Gladstone,Gladstone,Australia,AU,-23.8,151.25
GLI,Glen Innes,Glen Innes,Australia,AU,-29.683333,151.7
GLG,Glengyle,Glengyle,Australia,AU,-24.766667,139.583333
GLM,Glenormiston,Glenormiston,Australia,AU,-22.283333,138.316667
OOL,Gold Coast,Gold Coast,Australia,AU,-28.181111,153.5
GLY,Goldsworthy,Goldsworthy,Australia,AU,-20.083333,119.666667
GOO,Goondiwindi,Goondiwindi,Australia,AU,-28.521389,150.320278
GDD,Gordon Downs,Gordon Downs,Australia,AU,-18.833333,128.533333
GOS,Gosford,Gosford,Australia,AU,-33.433333,151.35
GUL,Goulburn,Goulburn,Australia,AU,-33.833333,151.833333
GBL,Goulburn Island,Goulburn Island,Australia,AU,-11.666667,133.416667
GFN,Grafton,Grafton,Australia,AU,-29.666667,153
GTS,Granites,Granites,Australia,AU,-26.966667,133.616667
GKL,Great Keppel Island,Great Keppel Island,Australia,AU,-23.183333,150.95
GVP,Greenvale,Greenvale,Australia,AU,-15.783333,144.616667
GGD,Gregory Downs,Gregory Downs,Australia,AU,-18.7,139.25
GFE,Grenfell,Grenfell,Australia,AU,-33.9,148.166667
GFF,Griffith,Griffith,Australia,AU,-34.25,146.066667
GUH,Gunnedah,Gunnedah,Australia,AU,-30.95,150.233333
GYP,Gympie,Gympie,Australia,AU,-26.283333,152.7
HCQ,Halls Creek,Halls Creek,Australia,AU,-18.233333,127.666667
HLT,Hamilton,Hamilton,Australia,AU,-37.65,142.066667
HTI,Hamilton Island,Hamilton Island,Australia,AU,-20.358056,148.951667
PBY,Hamilton/Proserpine,Peppers Palm Bay,Australia,AU,-35.5,148.733333
HXX,Hay,Hay,Australia,AU,-34.516667,144.833333
HIS,Hayman Island,Hayman Island,Australia,AU,-20.066667,148.866667
HIP,Headingly,Headingly,Australia,AU,-21.316667,138.3
HAT,Heathlands,Heathlands,Australia,AU,-19.720833,140.583333
HLV,Helenvale,Helenvale,Australia,AU,-15.683333,145.2
JFM,Heliport,Fremantle,Australia,AU,-32.043333,115.739444
HRN,Heliport,Heron Island,Australia,AU,-23.433333,151.916667
HRY,Henbury,Henbury,Australia,AU,-24.666667,133.083333
HMG,Hermannsburg,Hermannsburg,Australia,AU,-23.966667,132.666667
HVB,Hervey Bay,Hervey Bay,Australia,AU,-25,153
HIG,Highbury,Highbury,Australia,AU,-16.433333,143.15
HLL,Hillside,Hillside,Australia,AU,-17,128.008333
HNK,Hinchinbrook Island,Hinchinbrook Island,Australia,AU,-18.383333,146.283333
HBA,Hobart,Hobart,Australia,AU,-42.836111,147.510278
HIH,Hook Island,Hook Island,Australia,AU,-20.166667,148.95
HOK,Hooker Creek,Hooker Creek,Australia,AU,-18.366667,130.666667
HPE,Hope Vale,Hope Vale,Australia,AU,-14.666667,144.916667
HTU,Hopetoun,Hopetoun,Australia,AU,-35.716667,142.35
HID,Horn Island,Horn Island,Australia,AU,-10.536667,142.29
HSM,Horsham,Horsham,Australia,AU,-36.5,141.841667
HGD,Hughenden,Hughenden,Australia,AU,-20.833333,144.2
HUB,Humbert River,Humbert River,Australia,AU,-16.483333,130.633333
IFF,Iffley,Iffley,Australia,AU,-18.916667,141.25
IDK,Indulkana,Indulkana,Australia,AU,-26.966667,133.325
IGH,Ingham,Ingham,Australia,AU,-18.8,146.1
INJ,Injune,Injune,Australia,AU,-25.85,148.55
IKP,Inkerman,Inkerman,Australia,AU,-16.25,141.5
INM,Innamincka,Innamincka,Australia,AU,-27.833333,140.833333
IFL,Innisfail,Innisfail,Australia,AU,-17.566667,146.033333
IVR,Inverell,Inverell,Australia,AU,-29.833333,151.533333
IVW,Inverway,Inverway,Australia,AU,-17.766667,129.233333
ISI,Isisford,Isisford,Australia,AU,-24.2,144.416667
JAB,Jabiru,Jabiru,Australia,AU,-10.216667,132.566667
JAD,Jandakot,Perth,Australia,AU,-32.0975,115.881111
JCK,Julia Creek,Julia Creek,Australia,AU,-20.583333,141.7
JUN,Jundah,Jundah,Australia,AU,-24.8,143.033333
JUR,Jurien Bay,Jurien Bay,Australia,AUS,-30.269722,115.05
KAX,Kalbarri,Kalbarri,Australia,AU,-27.866667,114.133333
KGI,Kalgoorlie,Kalgoorlie,Australia,AU,-30.789444,121.461667
WAV,Kalkgurung,Wave Hill,Australia,AU,-17.65,130.883333
KFG,Kalkurung,Kalkurung,Australia,AU,-17.433333,130.816667
KPP,Kalpowar,Kalpowar,Australia,AU,-14.883333,144.216667
UBU,Kalumburu,Kalumburu,Australia,AU,-14.416667,126.666667
KDS,Kamaran Downs,Kamaran Downs,Australia,AU,-24.333333,139.166667
KDB,Kambalda,Kambalda,Australia,AU,-31.2,121.666667
KML,Kamileroi,Kamileroi,Australia,AU,-19.5,140.083333
KTA,Karratha,Karratha,Australia,AU,-20.716667,116.766667
KRB,Karumba,Karumba,Australia,AU,-17.5,140.866667
KNI,Katanning,Katanning,Australia,AU,-33.7,117.55
KPS,Kempsey,Kempsey,Australia,AU,31.066667,152.766667
KRA,Kerang,Kerang,Australia,AU,-35.75,143.933333
KBD,Kimberley Downs,Kimberley Downs,Australia,AU,-17.4,124.366667
KNS,King Island,"King Island, Tasmania",Australia,AU,-39.883056,143.883056
KGY,Kingaroy,"Kingaroy, Queensland",Australia,AU,-26.580833,151.841111
KBJ,Kings Canyon,Kings Canyon,Australia,AU,-24.261389,131.490833
KCS,Kings Creek Station,Kings Creek Station,Australia,AU,24.383333,131.683333
KGC,Kingscote,Kingscote,Australia,AU,-35.713889,137.521389
SYD,Kingsford Smith,Sydney,Australia,AU,-33.946111,151.177222
KBB,Kirkimbie,Kirkimbie,Australia,AU,-17.766667,129.216667
KOH,Koolatah,Koolatah,Australia,AU,-15.966667,142.416667
KKP,Koolburra,Koolburra,Australia,AU,-15.583333,143.95
KQB,Koonibba,Koonibba,Australia,AU,-31.966667,133.45
KWM,Kowanyama,Kowanyama,Australia,AU,-15.487778,141.76
KUG,Kubin Island,Kubin Island,Australia,AU,-10.25,142.216667
KGR,Kulgera,Kulgera,Australia,AU,-25.833333,133.5
KNX,Kununurra,Kununurra,Australia,AU,-15.833333,128.75
KRD,Kurundi,Kurundi,Australia,AU,-20.5,134.633333
TGN,La Trobe Regional,Traralgon,Australia,AU,-38.183333,146.533333
LYT,Lady Elliot Island,Lady Elliot Island,Australia,AU,-24.116667,152.7
LEL,Lake Evella,Lake Evella,Australia,AU,-12.216667,136.25
LGE,Lake Gregory,Lake Gregory,Australia,AU,-28.916667,139
LNH,Lake Nash,Lake Nash,Australia,AU,-21,137.916667
LFP,Lakefield,Lakefield,Australia,AU,-14.916667,144.333333
LKD,Lakeland Downs,Lakeland Downs,Australia,AU,-16.166667,145.5
LDW,Lansdowne,Lansdowne,Australia,AU,-17.583333,126.833333
LTB,Latrobe,Latrobe,Australia,AU,-41.233333,146.4
LST,Launceston,Launceston,Australia,AU,-41.546667,147.212778
LUU,Laura,Laura,Australia,AU,-15.666667,144.166667
LUT,Laura Station,Laura Station,Australia,AU,-15.433333,144.816667
LVO,Laverton,Laverton,Australia,AU,-28.633333,122.366667
LWH,Lawn Hill,Lawn Hill,Australia,AU,-18.633333,138.633333
LEA,Learmonth,Learmonth,Australia,AU,-22.233333,114.1
LGH,Leigh Creek,Leigh Creek,Australia,AU,-30.466667,138.416667
LER,Leinster,Leinster,Australia,AU,-27.833333,120.616667
LNO,Leonora,Leonora,Australia,AU,-28.883333,121.3
LHG,Lightning Ridge,Lightning Ridge,Australia,AU,-29.4,147.966667
LLT,Lilydale Airport,Lilydale,Australia,AU,-37.691667,145.366667
LIB,Limbunya,Limbunya,Australia,AU,-17.333333,129.833333
LLP,Linda Downs,Linda Downs,Australia,AU,-23.016667,138.7
LDC,Lindeman Island,Lindeman Island,Australia,AU,-20.45,149.05
LSY,Lismore,Lismore,Australia,AU,-28.833333,153.266667
LLL,Lissadell,Lissadell,Australia,AU,-16.5,128.666667
LZR,Lizard Island,Lizard Island,Australia,AU,-14.666667,145.466667
LOC,Lock,Lock,Australia,AU,-33.566667,135.766667
IRG,Lockhart River,Lockhart River,Australia,AU,-12.783333,143.3
HAP,Long Island,Long Island,Australia,AU,-19.166667,147.666667
LRE,Longreach,Longreach,Australia,AU,-23.433333,144.266667
LDH,Lord Howe Island,Lord Howe Island,Australia,AU,-31.516667,159.05
LOA,Lorraine,Lorraine,Australia,AU,-19.083333,139.966667
LTV,Lotusvale,Lotusvale,Australia,AU,-17.083333,141.366667
LTP,Lyndhurst,Lyndhurst,Australia,AU,-19.2,144.383333
UBB,Mabuiag Island,Mabuiag Island,Australia,AU,-9.95,142.183333
MNW,Macdonald Downs,Macdonald Downs,Australia,AU,-22.5,135.166667
MKY,Mackay,Mackay,Australia,AU,-21.166667,149.183333
MVH,Macksville,Macksville,Australia,AU,-30.716667,152.916667
MHC,Macmahon Camp 4,Macmahon Camp 4,Australia,AU,-15.116667,-73.75
MIZ,Mainoru,Mainoru,Australia,AU,-14.3,134.083333
MTL,Maitland,Maitland,Australia,AU,-32.733333,151.55
XMC,Mallacoota,Mallacoota,Australia,AU,-37.6,149.716667
MQA,Mandora,Mandora,Australia,AU,-19.833333,120.833333
MNG,Maningrida,Maningrida,Australia,AU,-12.05,134.216667
MJP,Manjimup,Manjimup,Australia,AU,-34.233333,116.15
MFP,Manners Creek,Manners Creek,Australia,AU,-22.1,137.983333
MBB,Marble Bar,Marble Bar,Australia,AU,-21.25,119.583333
MRG,Mareeba,Mareeba,Australia,AU,-17,145.433333
MQZ,Margaret River,Margaret River,Australia,AU,-18.633333,126.866667
MGV,Margaret River,Margaret River Station,Australia,AU,-18.616667,126.883333
MXD,Marion Downs,Marion Downs,Australia,AU,-23.5,139.666667
MRP,Marla,Marla,Australia,AU,-27.033333,133.116667
MCY,Maroochydore,Sunshine Coast,Australia,AU,-26.603333,153.091111
MQE,Marqua,Marqua,Australia,AU,-22.816667,137.35
RRE,Marree,Marree,Australia,AU,-29.65,138.066667
MBH,Maryborough,Maryborough,Australia,AU,-25.516667,152.716667
MCV,Mcarthur River,Mcarthur River,Australia,AU,-16.466667,136.083333
MKR,Meekatharra,Meekatharra,Australia,AU,-26.6,118.55
MIM,Merimbula,Merimbula,Australia,AU,-36.916667,149.883333
MLV,Merluna,Merluna,Australia,AU,-13.066667,142.45
RTY,Merty,Merty,Australia,AU,-29,138.733333
MMM,Middlemount,Middlemount,Australia,AU,-22.8025,148.704722
MQL,Mildura,Mildura,Australia,AU,-34.233333,142.083333
MGT,Milingimbi,Milingimbi,Australia,AU,-12.1,134.9
MLR,Millicent,Millicent,Australia,AU,-37.633333,140.583333
MRL,Miners Lake,Miners Lake,Australia,AU,-20.066667,145.583333
XML,Minlaton,Minlaton,Australia,AU,-34.766667,137.6
MIN,Minnipa,Minnipa,Australia,AU,-32.833333,135.133333
MWY,Miranda Downs,Miranda Downs,Australia,AU,-17.366667,141.866667
MTQ,Mitchell,Mitchell,Australia,AU,-26.583333,147.966667
MIH,Mitchell Plateau,Mitchell Plateau,Australia,AU,-14.783333,125.816667
MXQ,Mitchell River,Mitchell River,Australia,AU,-15.666667,141.8
MIY,Mittiebah,Mittiebah,Australia,AU,-18.5,136.266667
ONR,Monkira,Monkira,Australia,AU,-24.816667,140.533333
MNQ,Monto,Monto,Australia,AU,-24.883333,151.1
MWT,Moolawatana,Moolawatana,Australia,AU,-29.916667,139.716667
MOO,Moomba,Moomba,Australia,AU,-28.133333,140.233333
MBW,Moorabbin,Mentone,Australia,AU,-37.975833,145.102222
OOR,Mooraberree,Mooraberree,Australia,AU,-25.245,140.980833
MOV,Moranbah,Moranbah,Australia,AU,-22.116667,149.533333
MWB,Morawa,Morawa,Australia,AU,-29.204167,116.0225
MRZ,Moree,Moree,Australia,AU,-29.5,149.833333
MET,Moreton,Moreton,Australia,AU,-12.75,142.766667
OXY,Morney,Morney,Australia,AU,-25.366667,141.466667
ONG,Mornington,Mornington,Australia,AU,-16.583333,139.3
MRT,Moroak,Moroak,Australia,AU,-14.816667,133.7
MYA,Moruya,Moruya,Australia,AU,-35.9,150.133333
MBF,Mount Buffalo,Mount Buffalo,Australia,AU,-22.583333,149.466667
MFL,Mount Full Stop,Mount Full Stop,Australia,AU,-19.666667,144.9
MGB,Mount Gambier,Mount Gambier,Australia,AU,-37.745556,140.785278
GSN,Mount Gunson,Mount Gunson,Australia,AU,-31.866667,138.2
MHU,Mount Hotham,Mount Hotham,Australia,AU,-37.166667,146.166667
MHO,Mount House,Mount House,Australia,AU,-17.166667,125.666667
ISA,Mount Isa,Mount Isa,Australia,AU,-20.666667,139.466667
WME,Mount Keith,Mount Keith,Australia,AU,-27.286389,120.554722
MMG,Mount Magnet,Mount Magnet,Australia,AU,-28.083333,117.85
MSF,Mount Swan,Mount Swan,Australia,AU,-22.666667,134.916667
MNV,Mountain Valley,Mountain Valley,Australia,AU,-14.116667,133.833333
MBN,Mt Barnett,Mt Barnett,Australia,AU,-16.666667,125.95
MKV,Mt Cavenagh,Mt Cavenagh,Australia,AU,-25.966667,133.2
MTD,Mt Sandford,Mt Sandford,Australia,AU,-16.983333,130.55
MUQ,Muccan,Muccan,Australia,AU,-20.633333,120.033333
DGE,Mudgee,Mudgee,Australia,AU,-32.783333,149.166667
MUP,Mulga Park,Mulga Park,Australia,AU,-25.85,131.6
MVK,Mulka,Mulka,Australia,AU,-28.35,138.65
MXU,Mullewa,Mullewa,Australia,AU,-28.55,115.516667
MNE,Mungeranie,Mungeranie,Australia,AU,-28.016667,138.666667
MYI,Murray Island,Murray Island,Australia,AU,-9.933333,144.016667
MVU,Musgrave,Musgrave,Australia,AU,-14.166667,143.683333
UTB,Muttaburra,Muttaburra,Australia,AU,-22.588056,144.526667
MYO,Myroodah,Myroodah,Australia,AU,-18.2,124.2
NBR,Nambour,Nambour,Australia,AU,-26.633333,152.95
NBH,Nambucca Heads,Nambucca Heads,Australia,AU,-30.65,153
NMR,Nappa Merry,Nappa Merry,Australia,AU,-27.633333,141.083333
NPP,Napperby,Napperby,Australia,AU,-22.633333,132.833333
NAC,Naracoorte,Naracoorte,Australia,AU,-36.966667,140.583333
NAA,Narrabri,Narrabri,Australia,AU,-30.333333,149.833333
NRA,Narrandera,Narrandera,Australia,AU,-34.7,146.516667
NRG,Narrogin,Narrogin,Australia,AU,-32.933333,117.166667
NMP,New Moon,New Moon,Australia,AU,-20.166667,143.966667
ZNE,Newman,Newman,Australia,AU,-23.416667,119.933333
NRY,Newry,Newry,Australia,AU,-16.083333,129.341667
RPM,Ngukurr,Ngukurr,Australia,AU,-14.833333,134.916667
GOV,Nhulunbuy,Gove,Australia,AU,-12.166667,136.675
NLS,Nicholson,Nicholson,Australia,AU,-18.041667,128.9
NKB,Noonkanbah,Noonkanbah,Australia,AU,-18.5,124.833333
NSA,Noosa,Noosa,Australia,AU,26.25,153.166667
NSV,Noosaville,Noosaville,Australia,AU,-26.4,153.066667
NTN,Normanton,Normanton,Australia,AU,-17.7,141.066667
NSM,Norseman,Norseman,Australia,AU,-32.2,121.75
NOA,Nowra,Nowra,Australia,AU,-34.933333,150.566667
NLL,Nullagine,Nullagine,Australia,AU,-21.75,120.2
NUR,Nullarbor,Nullarbor,Australia,AU,-31.433333,130.916667
NUB,Numbulwar,Numbulwar,Australia,AU,-14.266667,135.716667
UTD,Nutwood Downs,Nutwood Downs,Australia,AU,-15.833333,134.166667
NYN,Nyngan,Nyngan,Australia,AU,-31.55,147.183333
OKY,Oakey,Oakey,Australia,AU,-27.402778,151.733333
OBA,Oban,Oban,Australia,AU,-21.233333,139.033333
OPI,Oenpelli,Oenpelli,Australia,AU,-12.333333,133.083333
WGZ,Off Line Point,Manly,Australia,AU,-25.566667,146.833333
XZX,Off line Point,Rail,Australia,AU,37.716667,28.966667
OLP,Olympic Dam,Olympic Dam,Australia,AU,-30.485,136.876667
ONS,Onslow,Onslow,Australia,AU,-21.666667,115.1
ODD,Oodnadatta,Oodnadatta,Australia,AU,-27.55,135.433333
RBS,Orbost,Orbost,Australia,AU,-37.7,148.5
ODR,Ord River,Ord River,Australia,AU,-17.35,128.9
OXO,Orientos,Orientos,Australia,AU,-28.133333,141.533333
OYN,Ouyen,Ouyen,Australia,AU,-32.066667,142.333333
LBH,Palm Beach SPB,Sydney,Australia,AU,33.966667,151.25
PMK,Palm Island,Palm Island,Australia,AU,-18.083333,146.683333
PDE,Pandie Pandie,Pandie Pandie,Australia,AU,-26.133333,139.383333
PBO,Paraburdoo,Paraburdoo,Australia,AU,-23.233333,117.516667
PRD,Pardoo,Pardoo,Australia,AU,-20.133333,119.583333
PKE,Parkes,Parkes,Australia,AU,-33.133333,148.233333
PDN,Parndana,Parndana,Australia,AU,-35.8,137.216667
PEA,Penneshaw,Penneshaw,Australia,AU,-35.733333,137.933333
PEY,Penong,Penong,Australia,AU,-31.916667,133.016667
PEP,Peppimenarti,Peppimenarti,Australia,AU,-14.15,130.1
PER,Perth International,Perth,Australia,AU,-31.940278,115.966944
PUG,Port Augusta,Port Augusta,Australia,AU,-32.540278,137.716667
PTI,Port Douglas,Port Douglas,Australia,AU,-16.483333,145.45
PHE,Port Hedland,Port Hedland,Australia,AU,-20.383333,118.45
PHJ,Port Hunter,Port Hunter,Australia,AU,-32.916667,151.766667
PKT,Port Keats,Port Keats,Australia,AU,-14.25,129.533333
PLO,Port Lincoln,Port Lincoln,Australia,AU,-34.6,135.883333
PQQ,Port Macquarie,Port Macquarie,Australia,AU,-31.633333,152.916667
PPI,Port Pirie,Port Pirie,Australia,AU,-33.233333,138
PTE,Port Stephens,Port Stephens,Australia,AU,-32.75,153.8
PTJ,Portland,Portland,Australia,AU,-38.383333,141.633333
UEE,Queenstown,Queenstown,Australia,AU,-42,145.508333
ULP,Quilpie,Quilpie,Australia,AU,-26.633333,144.3
UIR,Quirindi,Quirindi,Australia,AU,-31.490556,150.513889
BHS,Raglan,Bathurst,Australia,AU,-33.416667,149.65
RAM,Ramingining,Ramingining,Australia,AU,-12,134.816667
RVT,Ravensthorpe,Ravensthorpe,Australia,AU,45.983333,16.483333
RMK,Renmark,Renmark,Australia,AU,-34.2,140.683333
RCM,Richmond,Richmond,Australia,AU,-20.716944,143.116667
XRH,Richmond AFB,Richmond,Australia,AU,48.166667,-65.833333
ROH,Robinhood,Robinhood,Australia,AU,-18.85,143.7
RRV,Robinson River,Robinson River,Australia,AU,-16.75,136.916667
RBC,Robinvale,Robinvale,Australia,AU,-34.65,142.783333
ROK,Rockhampton,Rockhampton,Australia,AU,-23.381944,150.475278
RDA,Rockhampton Downs,Rockhampton Downs,Australia,AU,-18.95,135.2
RBU,Roebourne,Roebourne,Australia,AU,-20.766667,117.15
RKY,Rokeby,Rokeby,Australia,AU,-13.65,142.616667
RMA,Roma,Roma,Australia,AU,-26.55,148.766667
RPB,Roper Bar,Roper Bar,Australia,AU,-14.75,134.55
RPV,Roper Valley,Roper Valley,Australia,AU,-15.033333,134.033333
RSE,Rose Bay,Sydney,Australia,AU,-33.866667,151.266667
RSB,Roseberth,Roseberth,Australia,AU,-25.783333,139.616667
RLP,Rosella Plains,Rosella Plains,Australia,AU,-18.433333,144.466667
RTS,Rottnest Island,Rottnest Island,Australia,AU,-32,115.533333
RHL,Roy Hill,Roy Hill,Australia,AU,-22.633333,119.966667
RTP,Rutland Plains,Rutland Plains,Australia,AU,-15.6,141.833333
SBR,Saibai Island,Saibai Island,Australia,AU,-9.4,142.666667
SXE,Sale,Sale,Australia,AU,-38.083333,146.966667
SRM,Sandringham,Sandringham,Australia,AU,-24.05,139.066667
NDS,Sandstone,Sandstone,Australia,AU,-28,119.25
NSO,Scone,Scone,Australia,AU,-32.166667,150.916667
MJK,Shark Bay,Monkey Mia,Australia,AU,-25.8,113.716667
SWB,Shaw River,Shaw River,Australia,AU,-21.516667,119.366667
SGP,Shay Gap,Shay Gap,Australia,AU,-20.483333,120.1
SHT,Shepparton,Shepparton,Australia,AU,-36.433333,145.4
JHQ,Shute Harbour H/P,Shute Harbour,Australia,AU,-20.283333,148.75
SSP,Silver Plains,Silver Plains,Australia,AU,-13.983333,143.55
SIX,Singleton,Singleton,Australia,AU,-32.566667,151.166667
SHU,Smith Point,Smith Point,Australia,AU,-11.166667,133.833333
SIO,Smithton,Smithton,Australia,AU,-40.916667,145.016667
SNB,Snake Bay,Snake Bay,Australia,AU,-11.333333,130.75
ZGL,South Galway,South Galway,Australia,AU,-25.683333,142.116667
SOI,South Molle Island,South Molle Island,Australia,AU,-20,149
SQC,Southern Cross,Southern Cross,Australia,AU,-31.216667,119.316667
SHQ,Southport,Southport,Australia,AU,-27.951944,153.417778
SCG,Spring Creek,Spring Creek,Australia,AU,-18.633333,144.55
OAG,Springhill,Orange,Australia,AU,-33.383611,149.133611
KSV,Springvale,Springvale,Australia,AU,-23.666667,140.75
ZVG,Springvale,Springvale,Australia,AU,-17.8,127.633333
SGO,St George,St George,Australia,AU,-28.083333,148.75
HLS,St Helens,St Helens,Australia,AU,-41,148.175
SNH,Stanthorpe,Stanthorpe,Australia,AU,-28.633333,151.966667
SQP,Starcke,Starcke,Australia,AU,-14.2,147.166667
SWC,Stawell,Stawell,Australia,AU,-37.066667,142.766667
STF,Stephen Island,Stephen Island,Australia,AU,-9.5,143.566667
SRN,Strahan,Strahan,Australia,AU,-42.15,145.3
STH,Strathmore,Strathmore,Australia,AU,-17.833333,142.533333
KBY,Streaky Bay,Streaky Bay,Australia,AU,-32.8,134.233333
SSK,Sturt Creek,Sturt Creek,Australia,AU,-19.333333,128.133333
SFP,Surfers Paradise,Surfers Paradise,Australia,AU,-28,153.433333
SWH,Swan Hill,Swan Hill,Australia,AU,-35.383333,143.55
BWU,Sydney Bankstown,Sydney,Australia,AU,-33.916667,150.983333
SWZ,Sydney West,Sydney,Australia,AU,-33.883333,150.716667
TBL,Tableland,Tableland,Australia,AU,10.266667,-61.266667
TMW,Tamworth Regional Airport,Tamworth,Australia,AU,-31.068611,150.845556
TXR,Tanbar,Tanbar,Australia,AU,-25.833333,141.916667
TAN,Tangalooma,Tangalooma,Australia,AU,-27.178056,153.373611
XTR,Tara,Tara,Australia,AU,-27.161667,150.476944
TAQ,Tarcoola,Tarcoola,Australia,AU,-33.433333,142.583333
TRO,Taree,Taree,Australia,AU,-31.9,152.466667
XTO,Taroom,Taroom,Australia,AU,-25.65,149.8
TEF,Telfer,Telfer,Australia,AU,-23.083333,115.683333
TEM,Temora,Temora,Australia,AU,-34.433333,147.533333
TCA,Tennant Creek,Tennant Creek,Australia,AU,-19.533333,134.4
TWN,Tewantin,Tewantin,Australia,AU,-26.383333,153.033333
THG,Thangool,Thangool,Australia,AU,-24.493889,150.576111
XTG,Thargomindah,Thargomindah,Australia,AU,-28,143.816667
TDN,Theda Station,Theda,Australia,AU,38.086389,27.737778
TDR,Theodore,Theodore,Australia,AU,51.433333,-1.916667
TYG,Thylungra,Thylungra,Australia,AU,-26.066667,143.466667
TYB,Tibooburra,Tibooburra,Australia,AU,-29.433333,142.016667
TBK,Timber Creek,Timber Creek,Australia,AU,-44.766667,169.1
KTR,Tindal,Katherine,Australia,AU,-14.516667,132.366667
TYP,Tobermorey,Tobermorey,Australia,AU,-22.283333,137.916667
TCW,Tocumwal,Tocumwal,Australia,AU,-35.816667,145.566667
TPR,Tom Price,Tom Price,Australia,AU,22.65,106.066667
TWB,Toowoomba,Toowoomba,Australia,AU,-27.542778,151.916389
TWP,Torwood,Torwood,Australia,AU,-26.583333,147.55
TSV,Townsville International,Townsville,Australia,AU,-19.2525,146.765278
MEL,Tullamarine,Melbourne,Australia,AU,-37.673333,144.843333
TUM,Tumut,Tumut,Australia,AU,-35.3,148.216667
TKY,Turkey Creek,Turkey Creek,Australia,AU,-30.333333,142.75
USL,Useless Loop,Useless Loop,Australia,AU,-25.966667,113.116667
VNR,Vanrook,Vanrook,Australia,AU,-16.866667,141.916667
WBA,Wahai,Wahai,Australia,AU,-10.3,142.683333
WLC,Walcha,Walcha,Australia,AU,-30.983333,151.6
WGE,Walgett,Walgett,Australia,AU,-30.033333,148.133333
WLA,Wallal,Wallal,Australia,AU,-19.766667,120.65
WGT,Wangaratta,Wangaratta,Australia,AU,-36.366667,146.333333
SYU,Warraber Island,Sue Island,Australia,AU,-10.516667,142.366667
WKB,Warracknabeal,Warracknabeal,Australia,AU,-36.333333,142.25
WRW,Warrawagine,Warrawagine,Australia,AU,-20.966667,120.7
WMB,Warrnambool,Warrnambool,Australia,AU,-38.283333,142.45
WAZ,Warwick,Warwick,Australia,AU,-28.15,151.95
WLO,Waterloo,Waterloo,Australia,AU,-16.633333,129.316667
ORS,Waterport,Orpheus Island Resort,Australia,AU,-18.633333,146.483333
WAU,Wauchope,Wauchope,Australia,AU,-31.45,152.733333
WAN,Waverney,Waverney,Australia,AU,-25.366667,141.933333
WEW,Wee Waa,Wee Waa,Australia,AU,-30.233333,149.433333
WEI,Weipa,Weipa,Australia,AU,-12.678333,141.925
WHL,Welshpool,Welshpool,Australia,AU,-38.688889,146.45
WWY,West Wyalong,West Wyalong,Australia,AU,-33.933333,147.25
WSY,Whitsunday Airstrip,Airlie Beach,Australia,AU,-20.283333,148.783333
PPP,Whitsunday Coast,Proserpine,Australia,AU,-20.483333,148.55
WYA,Whyalla,Whyalla,Australia,AU,-33.05,137.516667
WIO,Wilcannia,Wilcannia,Australia,AU,-31.566667,143.383333
NTL,Williamtown,Newcastle,Australia,AU,-32.795,151.834444
HWK,Wilpena Pound,Hawker,Australia,AU,-31.883333,138.4
WUN,Wiluna,Wiluna,Australia,AU,-26.633333,120.216667
WND,Windarra,Windarra,Australia,AU,-28.266667,121.833333
WNR,Windorah,Windorah,Australia,AU,-25.416667,142.666667
WIN,Winton,Winton,Australia,AU,-22.35,143.066667
WIT,Wittenoom,Wittenoom,Australia,AU,-22.266667,118.333333
WLL,Wollogorang,Wollogorang,Australia,AU,-17.216667,137.916667
WOL,Wollongong,Wollongong,Australia,AU,-34.5625,150.788056
WDI,Wondai,Wondai,Australia,AU,-26.316667,151.866667
WON,Wondoola,Wondoola,Australia,AU,-18.666667,140.916667
WOG,Woodgreen,Woodgreen,Australia,AU,-22.5,134.25
UMR,Woomera,Woomera,Australia,AU,-31.166667,136.833333
WPK,Wrotham Park,Wrotham Park,Australia,AU,-16.633333,144
WUD,Wudinna,Wudinna,Australia,AU,-33.016667,135.619444
WYN,Wyndham,Wyndham,Australia,AU,-15.516667,128.15
KYI,Yalata Mission,Yalata Mission,Australia,AU,-31.483333,131.866667
YLG,Yalgoo,Yalgoo,Australia,AU,-28.35,116.666667
XMY,Yam Island,Yam Island,Australia,AU,-10.483333,142.45
YNN,Yandi,Yandicoogina,Australia,AU,-21.416667,120.166667
KYB,Yangoonabie,Yangoonabie,Australia,AU,-31.466667,130.066667
KYF,Yeelirrie,Yeelirrie,Australia,AU,-27.277778,120.075
OKR,Yorke Island,Yorke Island,Australia,AU,-9.733333,143.416667
ORR,Yorketown,Yorketown,Australia,AU,-35.033333,137.6
NGA,Young,Young,Australia,AU,-34.25,148.25
YUE,Yuendumu,Yuendumu,Australia,AU,-22.266667,131.783333
KLU,Alpe Adria,Klagenfurt,Austria,AT,46.645,14.326667
LNZ,Blue Danube,Linz,Austria,AT,48.3,14.3
HOH,Hohenems,Hohenems,Austria,AT,47.383333,9.7
INN,Innsbruck-kranebitten,Innsbruck,Austria,AT,47.266667,11.35
XJS,Kitzbuehl Railway,Kitzbuehl,Austria,AT,47.543333,10.708889
QLX,Lauterach,Lauterach,Austria,AT,47.483056,9.733056
XGZ,Railway Station,Bregenz,Austria,AT,47.5,9.766667
VIE,Schwechat International,Vienna,Austria,AT,48.110278,16.569722
XWC,Suedbahnhof Rail,Vienna,Austria,AT,48.25,16.416667
GRZ,Thalerhof,Graz,Austria,AT,47.066667,15.45
VDD,Vienna Danubepier Hov,Vienna,Austria,AT,48.25,16.416667
SZG,W. A. Mozart,Salzburg,Austria,AT,47.793333,13.004444
XWW,Westbahnhof Rail,Vienna,Austria,AT,48.25,16.416667
KVD,Gyandzha,Gyandzha,Azerbaijan,AZ,40.733333,46.316667
ZXT,Heydar Aliyev,Baku,Azerbaijan,AZ,40.45,50.066667
GYD,Heydar Aliyev International,Baku,Azerbaijan,AZ,40.4675,50.046667
NAJ,Nakhichevan,Nakhichevan,Azerbaijan,AZ,39.333333,45.5
WZY,Paradise Island Seaplane Base,Nassau,Bahamas,BS,25.087222,-77.323889
ASD,Andros Town,Andros Town,Bahamas,BS,24.6975,-77.793889
GBI,Auxiliary Airfield,Grand Bahama,Bahamas,BS,26.631944,-78.359167
CEL,Cape Eleuthera,Cape Eleuthera,Bahamas,BS,24.958333,-76.45
CXY,Cat Cays,Cat Cays,Bahamas,BS,24.315,-75.453611
CCZ,Chub Cay,Chub Cay,Bahamas,BS,25.416667,-77.883333
COX,Congo Town,Congo Town,Bahamas,BS,24.15,-77.586111
CRI,Crooked Island,Crooked Island,Bahamas,BS,22.75,-74.15
LGI,Deadmans Cay,Long Island,Bahamas,BS,23.25,-75.133333
DCT,Duncan Town,Duncan Town,Bahamas,BS,22.183333,-75.733333
SML,Estate Airstrip,Stella Maris,Bahamas,BS,23.6,-75.3
GGT,Exuma International,George Town,Bahamas,BS,23.55,-75.883333
GHB,Governors Harbour,Governors Harbour,Bahamas,BS,25.283333,-76.333333
FPO,Grand Bahama International,Freeport,Bahamas,BS,26.558611,-78.695556
GHC,Great Harbour,Great Harbour,Bahamas,BS,25.750278,-77.85
GTC,Green Turtle,Green Turtle,Bahamas,BS,26.783333,-77.333333
HBI,Harbour Island,Harbour Island,Bahamas,BS,25.5,-76.75
IGA,Inagua,Inagua,Bahamas,BS,20.983333,-73.666667
BIM,International,Bimini,Bahamas,BS,25.7,-79.283333
MHH,International,Marsh Harbour,Bahamas,BS,26.5,-77.1
ELH,International,North Eleuthera,Bahamas,BS,25.483333,-76.683333
MAY,Mangrove Cay,Mangrove Cay,Bahamas,BS,24.216667,-77.666667
MSK,Mastic Point,Mastic Point,Bahamas,BS,36.850833,27.076111
MYG,Mayaguana,Mayaguana,Bahamas,BS,22.366667,-73.016667
NAS,Nassau International,Nassau,Bahamas,BS,25.038889,-77.466111
CAT,New Bight,Cat Island,Bahamas,BS,24.3,-75.452222
NET,New Bight,New Bight,Bahamas,BS,17.266667,-87.85
TBI,New Bright,The Bight,Bahamas,BS,17.216667,-88.35
NSB,North SPB,Bimini,Bahamas,BS,25.775,-79.25
PID,Paradise Island,Nassau,Bahamas,BS,25.083333,-77.3
PWN,Pitts Town,Pitts Town,Bahamas,BS,22.833333,-74.35
PPO,Powell Point,Powell Point,Bahamas,BS,24.899722,-76.360833
RCY,Rum Cay,Rum Cay,Bahamas,BS,23.65,-74.85
RSD,S Eleuthera,Rock Sound,Bahamas,BS,24.95,-76.083333
SAQ,San Andros,San Andros,Bahamas,BS,25.05,-78.033333
ZSA,San Salvador,San Salvador,Bahamas,BS,24.059722,-74.533056
TZN,South Andros,South Andros,Bahamas,BS,24.233333,-77.583333
SWL,Spanish Wells,Spanish Wells,Bahamas,BS,18.433333,-77.183333
AXP,Springpoint Arpt,Spring Point,Bahamas,BS,22.45,-73.966667
TYM,Staniel Cay,Staniel Cay,Bahamas,BS,24.1525,-76.433889
TCB,Treasure Cay,"Treasure Cay, Ibaco Islands",Bahamas,BS,26.745278,-77.391389
WTD,West End,West End,Bahamas,BS,26.683333,-78.983333
BAH,Bahrain International,Manama,Bahrain,BH,26,50.5
GBQ,Muharraq,Muharraq,Bahrain,BH,26.257222,50.611944
WGF,Off Line Point,Manama,Bahrain,BH,-29.066667,27.733333
BZL,Barisal,Barisal,Bangladesh,BD,22.666667,90.341667
CLA,Comilla,Comilla,Bangladesh,BD,23.433333,91.183333
IRD,Ishurdi,Ishurdi,Bangladesh,BD,24.15,89.05
JSR,Jessore,Jessore,Bangladesh,BD,23.183333,89.166667
KHL,Khulna,Khulna,Bangladesh,BD,22.8,89.55
ZYL,Osmani International,Sylhet,Bangladesh,BD,24.95,91.866667
CGP,Patenga,Chittagong,Bangladesh,BD,22.266667,91.816667
RJH,Rajshahi,Rajshahi,Bangladesh,BD,24.416667,88.508333
RAU,Rangpur,Rangpur,Bangladesh,BD,25.75,89.233333
SPD,Saidpur,Saidpur,Bangladesh,BD,25.766667,88.766667
SDW,Sandwip,Sandwip,Bangladesh,BD,22.666667,91.166667
ZHM,Shamshernagar,Shamshernagar,Bangladesh,BD,24.398611,91.921111
SAJ,Sirajganj,Sirajganj,Bangladesh,BD,25.166667,91.425
TKR,Thakurgaon,Thakurgaon,Bangladesh,BD,26.033333,88.466667
DAC,Zia International,Dhaka,Bangladesh,BD/,23.843333,90.397778
BGI,Grantley Adams International,Bridgetown,Barbados,BB,13.074722,-59.4925
BQT,Brest,Brest,Belarus,BY,52.116667,23.883333
GME,Gomel,Gomel,Belarus,BY,52.416667,31
GNA,Grodna,Grodna,Belarus,BY,53.666667,23.8
MHP,Minsk International 1,Minsk,Belarus,BY,54,28
MSQ,Minsk International 2,Minsk,Belarus,BY,53.8825,28.030833
MVQ,Mogilev,Mogilev,Belarus,BY,53.95,30.133333
VTB,Vitebsk,Vitebsk,Belarus,BY,55.126389,30.349722
ZYZ,Berchem Railway Stn.,Antwerp,Belgium,BE,51.216667,4.416667
BRU,Brussels Airport,Brussels,Belgium,BE,50.902222,4.485833
CRL,Charleroi Brussels South,Brussels,Belgium,BE,50.46,4.452778
ZAY,De Keyserlei Bus Stn.,Antwerp,Belgium,BE,51.216667,4.416667
ANR,Deurne,Antwerp,Belgium,BE,51.189444,4.460278
GNE,Ghent,Ghent,Belgium,BE,51.05,3.716667
XHN,"Guillemins, Raiway Stn",Liege,Belgium,BE,50.633333,5.566667
KNO,Knokke/Het Zoute,Knokke/Het Zoute,Belgium,BE,51.416667,3.258333
KJK,Kortrijk,Kortrijk,Belgium,BE,50.833333,3.25
LGG,Liege Airport,Liege,Belgium,BE,50.636389,5.442778
OST,Ostend/Bruges International Airport,Ostend,Belgium,BE,51.2,2.866667
BCV,Belmopan,Belmopan,Belize,BZ,17.25,-88.766667
BGK,Big Creek,Big Creek,Belize,BZ,16.516667,-88.416667
CUK,Caye Caulker,Caye Caulker,Belize,BZ,17.75,-88.05
CYC,Caye Chapel,Caye Chapel,Belize,BZ,17.7,-88.033333
CZH,Corozal,Corozal,Belize,BZ,18.333333,-88.5
DGA,Dangriga,Dangriga,Belize,BZ,17.183333,-88.583333
INB,Independence,Independence,Belize,BZ,16.533333,-88.433333
MZE,Manatee,Manatee,Belize,BZ,17.25,-89.6
SQS,Matthew Spain,San Ignacio,Belize,BZ,5.55,-75.366667
MDB,Melinda,Melinda,Belize,BZ,16.999722,-88.316667
TZA,Municipal,Belize City,Belize,BZ,17.534722,-88.302778
ORZ,Orange Walk,Orange Walk,Belize,BZ,18.066667,-88.558333
BZE,Philip S.W.Goldson Int,Belize City,Belize,BZ,17.533333,-88.3
PLJ,Placencia,Placencia,Belize,BZ,16.516667,-88.366667
PND,Punta Gorda,Punta Gorda,Belize,BZ,16.166667,-88.7
SPR,San Pedro,San Pedro,Belize,BZ,17.916667,-87.966667
STU,Santa Cruz,Santa Cruz,Belize,BZ,18.275,-88.458333
SJX,Sartaneja,Sartaneja,Belize,BZ,18.3,-88.333333
SVK,Silver Creek,Silver Creek,Belize,BZ,16.733333,-88.333333
COO,Cotonou,Cotonou,Benin,BJ,6.35,2.383333
DJA,Djougou,Djougou,Benin,BJ,9.7,1.666667
KDC,Kandi,Kandi,Benin,BJ,11.133333,2.933333
NAE,Natitingou,Natitingou,Benin,BJ,10.316667,1.366667
PKO,Parakou,Parakou,Benin,BJ,9.35,2.616667
SVF,Save,Save,Benin,BJ,8.033333,2.483333
BDA,Kindley Field,Bermuda,Bermuda,BM,32.364167,-64.678611
NWU,NAS,Bermuda,Bermuda,BM,32.333333,-64.75
PBH,Paro,Paro,Bhutan,BT,27.403056,89.425
APB,Apolo,Apolo,Bolivia,BO,-14.716667,-68.5
ASC,Ascension,Ascension,Bolivia,BO,-15.716667,-63.066667
BJO,Bermejo,Bermejo,Bolivia,BO,-22.866667,-64.333333
CAM,Camiri,Camiri,Bolivia,BO,-20.016667,-63.566667
SRJ,Capitan G Q Guardia,San Borja,Bolivia,BO,-14.816667,-66.833333
CEP,Concepcion,Concepcion,Bolivia,BO,-16.233333,-62.083333
CIJ,E. Beltram,Cobija,Bolivia,BO,-11.016667,-68.733333
LPB,El Alto,La Paz,Bolivia,BO,-16.513333,-68.192222
SRZ,El Trompillo,Santa Cruz,Bolivia,BO,-17.8,-63.166667
RIB,Gen Buech,Riberalta,Bolivia,BO,-11.016667,-66.083333
GYA,Guayaramerin,Guayaramerin,Bolivia,BO,-10.8,-65.383333
CBB,J Wilsterman,Cochabamba,Bolivia,BO,-17.4,-66.15
SRE,Juana Azurduy de Padilla,Sucre,Bolivia,BO,-19.006944,-65.288611
MGD,Magdalena,Magdalena,Bolivia,BO,-13.033333,-64.416667
MHW,Monteagudo,Monteagudo,Bolivia,BO,-19.816667,-63.983333
ORU,Oruro,Oruro,Bolivia,BO,-17.95,-67.1
POI,Potosi,Potosi,Bolivia,BO,-19.533333,-65.75
PUR,Puerto Rico,Puerto Rico,Bolivia,BO,-11.116667,-67.5
PSZ,Puerto Suarez,Puerto Suarez,Bolivia,BO,-18.966667,-57.866667
REY,Reyes,Reyes,Bolivia,BO,-14.316667,-67.266667
RBO,Robore,Robore,Bolivia,BO,-18.333333,-59.75
RBQ,Rurrenabaque,Rurrenabaque,Bolivia,BO,-14.45,-67.55
SNM,San Ignacio De M,San Ignacio De M,Bolivia,BO,-14.866667,-65.583333
SNG,San Ignacio De Velasco,San Ignacio De Velasco,Bolivia,BO,-16.333333,-60.816667
SJV,San Javier,San Javier,Bolivia,BO,-16.233333,-62.416667
SJB,San Joaquin,San Joaquin,Bolivia,BO,-13.083333,-64.8
SJS,San Jose,San Jose,Bolivia,BO,-17.816667,-60.75
MQK,San Matias,San Matias,Bolivia,BO,-11.7,-66.65
SRD,San Ramon,San Ramon,Bolivia,BO,-13.283333,-64.7
SRB,Santa Rosa,Santa Rosa,Bolivia,BO,-14.166667,-66.883333
TJA,Tarija,Tarija,Bolivia,BO,11.833333,-13.733333
TDD,Trinidad,Trinidad,Bolivia,BO,5.416667,-71.666667
VAH,Vallegrande,Vallegrande,Bolivia,BO,41.616667,13.866667
VLM,Villamontes,Villamontes,Bolivia,BO,-21.25,-63.5
VVI,Viru Viru Intl,Santa Cruz,Bolivia,BO,-17.644722,-63.135278
BYC,Yacuiba,Yacuiba,Bolivia,BO,-21.966667,-63.7
SBL,Yacuma,Santa Ana,Bolivia,BO,-13.766667,-65.583333
BNX,Banja Luka,Banja Luka,Bosnia And Herzegovina,BA,44.766667,17.183333
OMO,Mostar,Mostar,Bosnia And Herzegovina,BA,43.286667,17.85
SJJ,Sarajevo,Sarajevo,Bosnia And Herzegovina,BA,43.816667,18.35
TZL,Tuzla International,Tuzla,Bosnia And Herzegovina,BA,44.458611,18.724722
FRW,Francistown,Francistown,Botswana,BW,-21.16,27.481111
GNZ,Ghanzi,Ghanzi,Botswana,BW,-21.7,21.666667
HUK,Hukuntsi,Hukuntsi,Botswana,BW,-23.983333,21.75
JWA,Jwaneng,Jwaneng,Botswana,BW,-25.05,25.283333
BBK,Kasane,Kasane,Botswana,BW,-17.832778,25.1625
KHW,Khwai River Lodge,Khwai River Lodge,Botswana,BW,-19.133333,23.833333
TLD,Limpopo Valley,Tuli Block,Botswana,BW,-22.833333,28
LOQ,Lobatse,Lobatse,Botswana,BW,-25.2,25.666667
MUB,Maun,Maun,Botswana,BW,-19.966667,23.433333
ORP,Orapa,Orapa,Botswana,BW,-21.133333,25.65
SVT,Savuti,Savuti,Botswana,BW,-18.616667,24.066667
PKW,Selebi-Phikwe,Selebi-Phikwe,Botswana,BW,-22.883333,26.916667
SWX,Shakawe,Shakawe,Botswana,BW,-18.383333,21.833333
GBE,Sir Seretse Khama International,Gaborone,Botswana,BW,-24.555278,25.918333
SXN,Suapan,Suapan,Botswana,BW,-20.55,26.116667
TBY,Tsabong,Tsabong,Botswana,BW,-26.05,22.45
SSA,Luis Eduardo Magalhaes,"Salvador, Bahia",Brazil,BR,12.911111,-38.331111
PPB,Adhemar De Barros,Presidente Prudente,Brazil,BR,-22.177778,-51.418333
GRU,Aeroporto Internacional Guarulhos,Sao Paulo,Brazil,BR,-23.431944,-46.469444
MVS,Aeroporto Max Feffer,Mucuri,Brazil,BR,-18.048889,-39.864167
XAP,Aeroporto Municipal Chapeco,Chapeco,Brazil,BR,-27.133333,-52.651944
CWB,Afonso Pena International Airport,Curitiba,Brazil,BR,-25.528611,-49.175833
BAT,Airport Chafei Amsei,Barretos,Brazil,BR,-20.583611,-48.585278
BGX,Airport Cmdt. Gustavo Kraemer,Bage,Brazil,BR,-31.390833,-54.109722
ALT,Alenquer,Alenquer,Brazil,BR,-1.938889,-54.747222
AMJ,Almenara,Almenara,Brazil,BR,-16.183333,-40.683333
AFL,Alta Floresta,Alta Floresta,Brazil,BR,-9.866111,-56.106111
ATM,Altamira,Altamira,Brazil,BR,-3.253889,-52.253889
APY,Alto Parnaiba,Alto Parnaiba,Brazil,BR,-9.1,-45.966667
APS,Anapolis,Anapolis,Brazil,BR,-16.362222,-48.926944
APU,Apucarana,Apucarana,Brazil,BR,-23.55,-51.483333
ARU,Aracatuba,Aracatuba,Brazil,BR,-21.183333,-50.416667
ARS,Aragarcas,Aragarcas,Brazil,BR,-15.896667,-52.095556
AUX,Araguaina,Araguaina,Brazil,BR,-7.2,-48.2
APQ,Arapiraca,Arapiraca,Brazil,BR,-9.75,-36.65
APX,Arapongas,Arapongas,Brazil,BR,-23.383333,-51.95
AAG,Arapoti,Arapoti,Brazil,BR,-24.166667,-49.666667
AQA,Araraquara,Araraquara,Brazil,BR,-21.811944,-48.133056
AAX,Araxa,Araxa,Brazil,BR,-19.568056,-46.929167
AQM,Ariquemes,Ariquemes,Brazil,BR,-9.933333,-63.066667
AAI,Arraias,Arraias,Brazil,BR,-12.916667,-46.933333
ZFU,Aruja,Aruja,Brazil,BR,-23.4,-46.333333
AIF,Assis,Assis,Brazil,BR,22.666667,-50.416667
NAT,Augusto Severo,Natal,Brazil,BR,-5.833333,-35.2
BFH,Bacacheri,Curitiba,Brazil,BR,-25.405,-49.231944
BSS,Balsas,Balsas,Brazil,BR,-7.5,-46.033333
BAZ,Barbelos,Barbelos,Brazil,BR,-0.966944,-62.933611
BQQ,Barra,Barra,Brazil,BR,-11.066667,-43.166667
BDC,Barra Do Corda,Barra Do Corda,Brazil,BR,-5.466667,-45.266667
BPG,Barra Do Garcas,Barra Do Garcas,Brazil,BR,-15.85,-52.383333
BRA,Barreiras,Barreiras,Brazil,BR,-12.05,-45
BRB,Barreirinhas,Barreirinhas,Brazil,BR,-2.833333,-42.833333
CAW,Bartolomeu Lisandro,Campos,Brazil,BR,-21.75,-41.3
RIA,Base Aerea De Santa Maria,"Santa Maria, Rs",Brazil,BR,-29.683056,-53.691667
BAU,Bauru,Bauru,Brazil,BR,-22.333333,-49.05
BVM,Belmonte,Belmonte,Brazil,BR,-15.85,-38.9
BGV,Bento Goncalves,Bento Goncalves,Brazil,BR,-29.166667,-51.516667
BNU,Blumenau,Blumenau,Brazil,BR,-26.933333,-49.05
BVB,Boa Vista,Boa Vista,Brazil,BR,2.833333,-60.683333
BCR,Boca Do Acre,Boca Do Acre,Brazil,BR,-8.633333,-67.416667
LAZ,Bom Jesus Da Lapa,Bom Jesus Da Lapa,Brazil,BR,-13.266667,-43.416667
BYO,Bonito Airport,Bonito,Brazil,BR,-4.55,-38.65
RBB,Borba,Borba,Brazil,BR,-4.4,-59.583333
BJP,Braganca Paulista,Braganca Paulista,Brazil,BR,-4.633333,-39.766667
BVS,Breves,Breves,Brazil,BR,-1.666667,-50.466667
BMS,Brumado,Brumado,Brazil,BR,-14.216667,-41.666667
BZC,Buzios,Buzios,Brazil,BR,-22.769444,-41.964444
CFB,Cabo Frio,Cabo Frio,Brazil,BR,-22.883333,-42.016667
CFC,Cacador,Cacador,Brazil,BR,-26.783333,-51
CCX,Caceres,Caceres,Brazil,BR,-16.043611,-57.63
CCQ,Cachoeira,Cachoeira,Brazil,BR,-12.6,-38.966667
CDI,Cachoeiro Itapemirim,Cachoeiro Itapemirim,Brazil,BR,-12.416667,-41.633333
OAL,Cacoal,Cacoal,Brazil,BR,-1.983333,-46.216667
CLV,Caldas Novas,Caldas Novas,Brazil,BR,-17.724722,-48.61
CMT,Cameta,Cameta,Brazil,BR,-2.25,-49.5
CMC,Camocim,Camocim,Brazil,BR,-2.9,-40.833333
CMP,Campo Alegre,Santana Do Araguaia,Brazil,BR,-9.333333,-50.333333
CXJ,Campo Dos Bugres,Caxias Do Sul,Brazil,BR,-29.196944,-51.1875
CBW,Campo Mourao,Campo Mourao,Brazil,BR,-24.05,-52.366667
NBV,Cana Brava,Cana Brava,Brazil,BR,-13.538056,-48.246944
CQA,Canarana Airport,Canarana,Brazil,BR,-4.45,-44.533333
CNV,Canavieiras,Canavieiras,Brazil,BR,-15.633333,-38.866667
FLB,Cangapara,Floriano,Brazil,BR,-6.833333,-43
CKS,Carajas,Carajas,Brazil,BR,-6,-51.333333
CAF,Carauari,Carauari,Brazil,BR,-4.9,-66.916667
CRQ,Caravelas,Caravelas,Brazil,BR,-17.65,-39.25
CZB,Carlos Ruhl,Cruz Alta,Brazil,BR,-28.633333,-53.5
CLN,Carolina,Carolina,Brazil,BR,-7.35,-47.433333
CAU,Caruaru,Caruaru,Brazil,BR,-8.283333,-35.966667
CTP,Carutapera,Carutapera,Brazil,BR,-1.25,-46.016667
CAC,Cascavel,Cascavel,Brazil,BR,-24.95,-53.483333
CSS,Cassilandia,Cassilandia,Brazil,BR,-19.15,-51.75
JPA,Castro Pinto,Joao Pessoa,Brazil,BR,-7.15,-34.966667
TLZ,Catalao,Catalao,Brazil,BR,-18.166667,-47.95
IGU,Cataratas,Iguassu Falls,Brazil,BR,-25.683333,-54.45
LEC,Chapada Diamantina,Lencois,Brazil,BR,-24.623889,-48.027778
CIZ,Coari,Coari,Brazil,BR,-4.083333,-63.133333
CSW,Colorado do Oeste,Colorado do Oeste,Brazil,BR,-22.816667,-51.95
ERM,Comandante Kraemer,Erechim,Brazil,BR,-27.659444,-52.275556
CDJ,Conceicao Do Araguaia,Conceicao Do Araguaia,Brazil,BR,-8.283333,-49.283333
CCI,Concordia,Concordia,Brazil,BR,-27.25,-52.033333
STZ,Confresa,Santa Terezinha,Brazil,BR,-10.464444,-50.052778
CFO,Confreza,Confreza,Brazil,BR,-10.633333,-51.566667
CGH,Congonhas,Sao Paulo,Brazil,BR,-23.626667,-46.655278
CKO,Cornelio Procopio,Cornelio Procopio,Brazil,BR,-23.152222,-50.602222
CCM,Criciuma,Criciuma,Brazil,BR,-28.7,-49.366667
CPU,Cururupu,Cururupu,Brazil,BR,-1.8,-44.866667
SJL,Da Cachoeira,Sao Gabriel,Brazil,BR,-30.333333,-54.316667
DMT,Diamantino,Diamantino,Brazil,BR,-14.416667,-56.45
DNO,Dianopolis,Dianopolis,Brazil,BR,-11.616667,-46.85
DIQ,Divinopolis,Divinopolis,Brazil,BR,-20.75,-41.883333
MVF,Dixsept Rosado,Mossoro,Brazil,BR,-5.183333,-37.333333
CTQ,Do Palmar,Santa Vitoria,Brazil,BR,-18.833333,-50.133333
LVB,Dos Galpoes,Livramento,Brazil,BR,-30.85,-55.6
DOU,Dourados,Dourados,Brazil,BR,-22.2,-54.866667
MII,Dr Gastao Vidigal,Marilia,Brazil,BR,-22.216667,-49.933333
PVI,Edu Chaves,Paranavai,Brazil,BR,-23.09,-52.488611
IOS,Eduardo Gomes,Ilheus,Brazil,BR,-14.815833,-39.033333
STM,Eduardo Gomes,Santarem,Brazil,BR,-2.416667,-54.7
UDI,Eduardo Gomes,Uberlandia,Brazil,BR,-18.882778,-48.225556
MAO,Eduardo Gomes Intl,Manaus,Brazil,BR,-3.038611,-60.047222
ERN,Eirunepe,Eirunepe,Brazil,BR,6.666667,-69.833333
UMU,Ernesto Geisel,Umuarama,Brazil,BR,-23.75,-53.333333
URB,Ernesto Pochler,Urubupunga,Brazil,BR,-20.8,-51.566667
ESI,Espinosa,Espinosa,Brazil,BR,-14.933333,-42.833333
VIX,Eurico Sales,Vitoria,Brazil,BR,-20.3,-40.25
ALQ,Federal,Alegrete,Brazil,BR,-29.8,-55.733333
PET,Federal,Pelotas,Brazil,BR,-31.716667,-52.316667
FEJ,Feijo,Feijo,Brazil,BR,-7,-36.016667
FEC,Feira De Santana,Feira De Santana,Brazil,BR,-12.25,-38.95
FEN,Fernando De Noronha,Fernando De Noronha,Brazil,BR,-3.85,-32.416667
FRC,Franca,Franca,Brazil,BR,-20.583333,-47.383333
FBE,Francisco Beltrao,Francisco Beltrao,Brazil,BR,-26.083333,-53.066667
JDF,Francisco De Assis,Juiz De Fora,Brazil,BR,-21.75,-43.333333
GIG,Galeoantonio Carlos Jobim International Airport,Rio De Janeiro,Brazil,BR,-22.808889,-43.243611
PVH,Governador Jorge Teixeira,Porto Velho,Brazil,BR,-8.709167,-63.902222
GVR,Governador Valadares,Governador Valadares,Brazil,BR,-18.895278,-41.982222
GCV,Gravatai,Gravatai,Brazil,BR,-29.95,-50.983333
GDP,Guadalupe,Guadalupe,Brazil,BR,-6.781944,-43.581667
GJM,Guajara-Mirim,Guajara-Mirim,Brazil,BR,-10.833333,-65.333333
GNM,Guanambi,Guanambi,Brazil,BR,-14.216667,-42.783333
GUZ,Guarapari,Guarapari,Brazil,BR,-20.666667,-40.5
REC,Guararapes Intl,Recife,Brazil,BR,-8.125833,-34.923889
GUJ,Guaratingueta,Guaratingueta,Brazil,BR,-22.791667,-45.204722
GMS,Guimaraes,Guimaraes,Brazil,BR,-2.133333,-44.6
GRP,Gurupi,Gurupi,Brazil,BR,-11.666667,-49.216667
LOI,Helmuth Baungartem,Lontras,Brazil,BR,-4.383333,-51.916667
FLN,Hercilio Luz,Florianopolis,Brazil,BR,-27.670556,-48.547222
ITR,Hidroeletrica,Itumbiara,Brazil,BR,-18.444722,-49.213333
HRZ,Horizontina,Horizontina,Brazil,BR,-27.616667,-54.316667
ILB,Ilha Solteira,Ilha Solteira,Brazil,BR,-20.383333,-51.333333
IMP,Imperatriz,Imperatriz,Brazil,BR,-5.5,-47.416667
MCP,Internacional,Macapa,Brazil,BR,0.066667,-51.066667
PNZ,Internacional,Petrolina,Brazil,BR,-9.383333,-40.5
TBT,Internacional,Tabatinga,Brazil,BR,-3.95,-38.7
CPQ,International,Campinas,Brazil,BR,-23,-47.133333
PMG,International,Ponta Pora,Brazil,BR,-22.533333,-55.733333
CGR,Intl. Airport Campo Grande,Campo Grande,Brazil,BR,-20.467222,-54.667222
CMG,Intl. Airport Corumba,Corumba,Brazil,BR,-19.011389,-57.666944
CZS,Intl. Airpt. Cruzeiro Do Sul,Cruzeiro Do Sul,Brazil,BR,-7.599444,-72.769444
CGB,Intl. Airpt. Marechal Rondon,Cuiaba,Brazil,BR,-15.653056,-56.116667
IPU,Ipiau,Ipiau,Brazil,BR,-14.133333,-39.733333
IPG,Ipiranga,Ipiranga,Brazil,BR,-3.333333,-69.416667
IRE,Irece,Irece,Brazil,BR,-11.3,-41.866667
ITN,Itabuna,Itabuna,Brazil,BR,-14.8,-39.383333
ITA,Itacoatiara,Itacoatiara,Brazil,BR,-3.2,-58.5
ITB,Itaituba,Itaituba,Brazil,BR,-4.266667,-55.983333
ITI,Itambacuri,Itambacuri,Brazil,BR,-18.016667,-41.7
ITP,Itaperuna,Itaperuna,Brazil,BR,-21.2,-41.9
ITQ,Itaqui,Itaqui,Brazil,BR,-29.166667,-56.533333
AUB,Itauba,Itauba,Brazil,BR,-7.1,-41.983333
ITE,Itubera,Itubera,Brazil,BR,-13.7,-39.2
IJU,J. Batista Bos Filho Airport,Ijui,Brazil,BR,-28.418611,-53.916667
JCR,Jacareacanga,Jacareacanga,Brazil,BR,-6.233611,-57.768333
JCM,Jacobina,Jacobina,Brazil,BR,-11.183333,-40.516667
JNA,Januaria,Januaria,Brazil,BR,-15.473889,-44.385556
JTI,Jatai,Jatai,Brazil,BR,-13.83,-51.773056
JEQ,Jequie,Jequie,Brazil,BR,-13.85,-40.083333
JPR,Ji-Parana,Ji-Parana,Brazil,BR,-8.05,-62.866667
JCB,Joacaba,Joacaba,Brazil,BR,-27.166667,-51.516667
CPV,Joao Suassuna,Campina Grande,Brazil,BR,-7.266667,-35.9
JIA,Juina,Juina,Brazil,BR,-11.5,-58.883333
JRN,Juruena,Juruena,Brazil,BR,-10.305556,-58.488889
LBR,Labrea,Labrea,Brazil,BR,-7.25,-64.783333
LAJ,Lages,Lages,Brazil,BR,-27.8,-50.316667
JOI,Lauro Carneiro De Loyola,Joinville,Brazil,BR,-26.217778,-48.800278
RAO,Leite Lopes,Ribeirao Preto,Brazil,BR,-21.134167,-47.774167
LEP,Leopoldina,Leopoldina,Brazil,BR,-21.516111,-42.654722
LIP,Lins,Lins,Brazil,BR,-21.666667,-49.75
LDB,Londrina,Londrina,Brazil,BR,-23.333333,-51.133333
MEA,Macae,Macae,Brazil,BR,-22.383333,-41.783333
VAG,Maj. Brig. Trompowsky,Varginha,Brazil,BR,-21.55,-45.433333
MNX,Manicore,Manicore,Brazil,BR,-5.816667,-61.283333
MAB,Maraba,Maraba,Brazil,BR,-5.366667,-49.166667
SLZ,Marechal Cunha Machado,So Luis,Brazil,BR,-2.585278,-44.234167
MTG,Mato Grosso,Mato Grosso,Brazil,BR,-15.016667,-60.016667
MBK,Matupa,Matupa,Brazil,BR,-10.241667,-54.954167
MBZ,Maues,Maues,Brazil,BR,-3.416667,-57.666667
NTM,Miracema Do Norte,Miracema Do Norte,Brazil,BR,-9.183333,-48.5
MTE,Monte Alegre,Monte Alegre,Brazil,BR,-2.016667,-54.066667
MEU,Monte Dourado,Monte Dourado,Brazil,BR,-0.884444,-52.6
MOC,Montes Claros,Montes Claros,Brazil,BR,-16.716667,-43.816667
PNG,Municipal,Paranagua,Brazil,BR,-25.516667,-48.5
PTO,Municipal,Pato Branco,Brazil,BR,-26.216667,-52.666667
NNU,Nanuque,Nanuque,Brazil,BR,-17.783333,-40.683333
NVT,Navegantes,Navegantes,Brazil,BR,-26.916667,-48.583333
NQL,Niquelandia,Niquelandia,Brazil,BR,-14.45,-48.45
NOK,Nova Xavantina,Nova Xavantina,Brazil,BR,-27.083333,-52.333333
NVP,Novo Aripuana,Aripuana,Brazil,BR,-5.133333,-60.366667
OBI,Obidos,Obidos,Brazil,BR,-1.866667,-55.533333
OYK,Oiapoque,Oiapoque,Brazil,BR,3.866667,-51.8
ORX,Oriximina,Oriximina,Brazil,BR,-1.666667,-55.833333
OIA,Ourilandia,Ourilandia,Brazil,BR,41.416667,-8.016667
OUS,Ourinhos,Ourinhos,Brazil,BR,-22.983333,-49.866667
MCZ,Palmares,Maceio,Brazil,BR,-9.633333,-35.7
PMW,Palmas,Palmas,Brazil,BR,-10.29,-48.357778
PLU,Pampulha Domestic,Belo Horizonte,Brazil,BR,-19.755556,-43.75
PBB,Paranaiba,Paranaiba,Brazil,BR,-19.666667,-51.183333
PIN,Parintins,Parintins,Brazil,BR,-2.633333,-56.733333
PFB,Passo Fundo,Passo Fundo,Brazil,BR,-28.25,-52.333333
PSW,Passos,Passos,Brazil,BR,-20.716667,-46.616667
POJ,Patos De Minas,Patos De Minas,Brazil,BR,40.683333,19.65
PAV,Paulo Afonso,Paulo Afonso,Brazil,BR,-9.383333,-38.233333
PCS,Picos,Picos,Brazil,BR,-7.083333,-41.466667
PBQ,Pimenta Bueno,Pimenta Bueno,Brazil,BR,-11.634722,-61.168889
PHI,Pinheiro,Pinheiro,Brazil,BR,-2.516667,-45.083333
FOR,Pinto Martins,Fortaleza,Brazil,BR,-3.776389,-38.5325
PIV,Pirapora,Pirapora,Brazil,BR,-23.4,-47
PIG,Pitinga,Pitinga,Brazil,BR,0.783611,-60.078611
POO,Pocos De Caldas,Pocos De Caldas,Brazil,BR,-21.841389,-46.5675
PLL,Ponta Pelada,Manaus,Brazil,BR,-3.146111,-59.986389
LCB,Pontes e Lacerda,Pontes e Lacerda,Brazil,BR,-1.55,-47.883333
PBX,Porto Alegre Do Norte,Porto Alegre Do Norte,Brazil,BR,-10.860556,-51.684444
PTQ,Porto de Moz,Porto de Moz,Brazil,BR,-1.738889,-52.244444
PBV,Porto Dos Gauchos,Porto Dos Gauchos,Brazil,BR,-21.35,-51.866667
PNB,Porto Nacional,Porto Nacional,Brazil,BR,-10.716667,-48.4
BPS,Porto Seguro,Porto Seguro,Brazil,BR,-16.438611,-39.080833
PPY,Pouso Alegre,Pouso Alegre,Brazil,BR,-22.289167,-45.919167
PDF,Prado,Prado,Brazil,BR,-17.35,-39.216667
RBR,Pres. Medici,Rio Branco,Brazil,BR,-10,-67.816667
BSB,Presidente Juscelino Kubitschek,"Braslia, Distrito Federal",Brazil,BR,-15.871111,-47.918611
PGG,Progresso,Sao Paulo,Brazil,BR,-6.95,-55.45
RDC,Redencao,Redencao,Brazil,BR,-8.030278,-49.98
MGF,Regional De Maringa SBMG,Maringa,Brazil,BR,-23.416667,-51.966667
JDO,Regional Do Cariri,Juazeiro Do Norte,Brazil,BR,-7.218056,-39.270556
IDO,Rio,Santa Isabel Do Morro,Brazil,BR,-11.572222,-50.666111
RIG,Rio Grande,Rio Grande,Brazil,BR,-32.083333,-52.166667
RVD,Rio Verde,Rio Verde,Brazil,BR,-17.833333,-50.955278
ROO,Rondonopolis,Rondonopolis,Brazil,BR,-16.433333,-54.716667
URG,Ruben Berta,Uruguaiana,Brazil,BR,-29.783333,-57.033333
POA,Salgado Filho,Porto Alegre,Brazil,BR,-29.984444,-51.171389
SNZ,Santa Cruz,Santa Cruz,Brazil,BR,-21.55,-42.283333
CSU,Santa Cruz Do Sul,Santa Cruz Do Sul,Brazil,BR,-29.716667,-52.433333
SFV,Santa Fe Do Sul,Santa Fe Do Sul,Brazil,BR,-20.216667,-50.933333
GYN,Santa Genoveva,Goiania,Brazil,BR,-16.631944,-49.220556
AJU,Santa Maria,Aracaju,Brazil,BR,-10.983611,-37.067778
SRA,Santa Rosa,Santa Rosa,Brazil,BR,-27.866667,-54.483333
SSZ,Santos,Santos,Brazil,BR,-23.916667,-46.133333
PHB,Santos Dumont,Parnaiba,Brazil,BR,-2.9,-41.766667
SDU,Santos Dumont,Rio De Janeiro,Brazil,BR,-22.833333,-43.25
SXO,Sao Felix Do Araguaia,Sao Felix Do Araguaia,Brazil,BR,-11.633333,-50.666667
SXX,Sao Felix Do Xingu,Sao Felix Do Xingu,Brazil,BR,-6.634444,-51.984444
SJP,Sao Jose Do Rio Preto,Sao Jose Do Rio Preto,Brazil,BR,-20.8,-49.383333
SJK,Sao Jose Dos Campos,Sao Jose Dos Campos,Brazil,BR,-23.183333,-46.116667
SSO,Sao Lourenco,Sao Lourenco,Brazil,BR,-22.1,-45.033333
SQY,Sao Lourenco Do Sul,Sao Lourenco Do Sul,Brazil,BR,-31.366667,-51.966667
SBJ,Sao Mateus,Sao Mateus,Brazil,BR,-18.720278,-39.8325
SQM,So Miguel de Aragao,So Miguel de Aragao,Brazil,BR,-13.331389,-50.1975
SQX,Sao Miguel do Oeste,Sao Miguel do Oeste,Brazil,BR,-26.781667,-53.503611
ZMD,Sena Madureira,Sena Madureira,Brazil,BR,-9.066667,-68.666667
THE,Senador Petrnio Portella,Teresina,Brazil,BR,-5.06,-42.823611
SEI,Senhor Do Bonfim,Senhor Do Bonfim,Brazil,BR,-10.45,-40.183333
GEL,Sepe Tiaraju,Santo Angelo,Brazil,BR,-28.266667,-54.266667
RRN,Serra Norte,Serra Norte,Brazil,BR,-6,-50.3
RSG,Serra Pelada,Serra Pelada,Brazil,BR,-5.95,-49.65
OPS,Sinop,Sinop,Brazil,BR,-12.084722,-55.633889
SOD,Sorocaba,Sorocaba,Brazil,BR,-23.478056,-47.49
SWM,Suia-Missu,Suia-Missu,Brazil,BR,-11.666667,-51.420833
RWS,Sumare,Sumare,Brazil,BR,-22.8,-47.283333
CNF,Tancredo Neves International,"Belo Horizonte, Minas Gerais",Brazil,BR,-19.633611,-43.968889
GPB,Tancredo Thomaz Faria,Guarapuava,Brazil,BR,-25.383333,-51.45
TGQ,Tangara da Serra,Tangara da Serra,Brazil,BR,-6.183333,-35.816667
TRQ,Tarauaca,Tarauaca,Brazil,BR,-8.166667,-70.766667
TFF,Tefe,Tefe,Brazil,BR,-3.366667,-64.7
TXF,Teixeira de Freitas,Teixeira de Freitas,Brazil,BR,-8.5,-70.533333
TEC,Telemaco Borba,Telemaco Borba,Brazil,BR,-24.35,-50.616667
TFL,Teofilo Otoni,Teofilo Otoni,Brazil,BR,-17.85,-41.5
TOW,Toledo,Toledo,Brazil,BR,-5.883333,-73.116667
TSQ,Torres,Torres,Brazil,BR,10.166667,-70.25
TMT,Trombetas,Trombetas,Brazil,BR,-13.466667,-48.75
TUZ,Tucuma,Tucuma,Brazil,BR,-0.183333,-50.05
TUR,Tucurui,Tucurui,Brazil,BR,-3.7,-49.7
UBT,Ubatuba,Ubatuba,Brazil,BR,-23.433333,-45.066667
UBA,Uberaba,Uberaba,Brazil,BR,-19.75,-47.95
UNA,Una,Una,Brazil,BR,-15.355278,-38.998889
IPN,Usiminas,Ipatinga,Brazil,BR,-19.5,-42.533333
BEL,Val De Cans,Belem,Brazil,BR,-1.383611,-48.468611
VAL,Valenca,Valenca,Brazil,BR,-13.366667,-39.066667
VIA,Vienna,Videira,Brazil,BR,27,-51.133333
BVH,Vilhena,Vilhena,Brazil,BR,-12.633333,-60.133333
VCP,Viracopos,"Campinas, Sao Paulo",Brazil,BR,-23.0075,-47.134444
VDC,Vitoria Da Conquista,Vitoria Da Conquista,Brazil,BR,-14.883333,-40.866667
VOT,Votuporanga,Votuporanga,Brazil,BR,-20.4,-49.983333
AXE,Xanxere,Xanxere,Brazil,BR,-26.883333,-52.383333
EIS,Beef Island,Beef Island,British Virgin Islands,VG,18.444722,-65.543056
VIJ,Virgin Gorda,Spanish Town/Virgin Gorda,British Virgin Islands,VG,18.5,-64.5
BWN,Bandar Seri Begwan International Airport,Bandar Seri Begawan,Brunei Darussalam,BN,4.944167,114.928333
BOJ,Bourgas,Bourgas,Bulgaria,BG,42.566667,27.5
GOZ,Gorna Oriahovitsa,Gorna Oriahovitsa,Bulgaria,BG,43.151389,25.712778
HKV,Haskovo,Haskovo,Bulgaria,BG,41.966667,25.5
JAM,Jambol,Jambol,Bulgaria,BG,42.516667,26.483333
KDG,Kardjali,Kardjali,Bulgaria,BG,42.102222,25.218611
PVN,Pleven,Pleven,Bulgaria,BG,42,24.5
PDV,Plovdiv,Plovdiv,Bulgaria,BG,42.067778,24.850833
ROU,Rousse,Rousse,Bulgaria,BG,43.833333,25.983333
SLS,Silistra,Silistra,Bulgaria,BG,44.016667,27.183333
SOF,Sofia,Sofia,Bulgaria,BG,42.7,23.4
SZR,Stara Zagora,Stara Zagora,Bulgaria,BG,42.433333,25.616667
TGV,Targovishte,Targovishte,Bulgaria,BG,11.917778,-1.656667
VAR,Varna,Varna,Bulgaria,BG,43.2325,27.825556
VID,Vidin,Vidin,Bulgaria,BG,43.983333,22.816667
XAR,Aribinda,Aribinda,Burkina Faso,BF,14.233333,-0.866667
ARL,Arly,Arly,Burkina Faso,BF,11.583333,1.25
BNR,Banfora,Banfora,Burkina Faso,BF,10.633333,-4.766667
XBG,Bogande,Bogande,Burkina Faso,BF,12.983333,-0.133333
BOY,Borgo,Bobo Dioulasso,Burkina Faso,BF,11.166667,-4.316667
XBO,Boulsa,Boulsa,Burkina Faso,BF,12.65,-0.566667
DGU,Dedougou,Dedougou,Burkina Faso,BF,12.466667,-3.483333
DIP,Diapaga,Diapaga,Burkina Faso,BF,12.05,1.783333
XDE,Diebougou,Diebougou,Burkina Faso,BF,10.966667,-3.25
XDJ,Djibo,Djibo,Burkina Faso,BF,14.1,-1.633333
DOR,Dori,Dori,Burkina Faso,BF,14.033333,-0.033333
FNG,Fada Ngourma,Fada Ngourma,Burkina Faso,BF,12.066667,0.35
XGA,Gaoua,Gaoua,Burkina Faso,BF,10.333333,-3.183333
XGG,Gorom-Gorom,Gorom-Gorom,Burkina Faso,BF,14.433333,-0.233333
XKA,Kantchari,Kantchari,Burkina Faso,BF,12.483333,1.516667
XKY,Kaya,Kaya,Burkina Faso,BF,13.083333,-1.083333
XLU,Leo,Leo,Burkina Faso,BF,11.1,-2.1
XNU,Nouna,Nouna,Burkina Faso,BF,12.733333,-3.866667
OUA,Ouagadougou,Ouagadougou,Burkina Faso,BF,12.35,-1.516667
OUG,Ouahigouya,Ouahigouya,Burkina Faso,BF,13.566667,-2.433333
XPA,Pama,Pama,Burkina Faso,BF,11.25,0.7
PUP,Po,Po,Burkina Faso,BF,11.166667,-1.15
XSE,Sebba,Sebba,Burkina Faso,BF,13.433333,0.533333
TMQ,Tambao,Tambao,Burkina Faso,BF,14.8,50
TEG,Tenkodogo,Tenkodogo,Burkina Faso,BF,11.78,-0.369722
TUQ,Tougan,Tougan,Burkina Faso,BF,13.066667,-3.066667
XZA,Zabre,Zabre,Burkina Faso,BF,11.133333,-1
GID,Gitega,Gitega,Burundi,BI,-3.416667,29.916667
BJM,International,Bujumbura,Burundi,BI,-3.316667,29.316667
KRE,Kirundo,Kirundo,Burundi,BI,-2.55,30.1
BBM,Battambang,Battambang,Cambodia,KH,13.083333,103.216667
KMT,Kampot,Kampot,Cambodia,KH,10.633333,104.166667
KKZ,Koh Kong,Koh Kong,Cambodia,KH,11.633333,102.966667
KZK,Kompong Thom,Kompong Thom,Cambodia,KH,12.716667,104.9
KZC,Kompong-Chhna,Kompong-Chhna,Cambodia,KH,12.233333,104.666667
KZD,Krakor,Krakor,Cambodia,KH,12.533333,104.15
KTI,Kratie,Kratie,Cambodia,KH,12.483333,106.05
MWV,Mundulkiri,Mundulkiri,Cambodia,KH,5.516667,72.866667
OMY,Oddor Meanche,Oddor Meanche,Cambodia,KH,13.816667,104.966667
PAI,Pailin,Pailin,Cambodia,KH,12.85,102.583333
PNH,Phnom Penh International,Phnom Penh,Cambodia,KH,11.55,104.85
HPP,Poipet,Poipet,Cambodia,KH,13.656111,102.5625
RBE,Ratanakiri,Ratanakiri,Cambodia,KH,13.833333,107
REP,Siem Reap,Siem Reap,Cambodia,KH,13.416667,103.816667
KOS,Sihanoukville,Sihanoukville,Cambodia,KH,10.6,103.683333
TNX,Stung Treng,Stung Treng,Cambodia,KH,13.533333,106.033333
SVR,Svay Rieng,Svay Rieng,Cambodia,KH,11.083333,105.805556
BFX,Bafoussam,Bafoussam,Cameroon,CM,5.483333,10.4
BLC,Bamenda,Bali,Cameroon,CM,6.039167,10.122778
BPC,Bamenda,Bamenda,Cameroon,CM,6.05,10.116667
OUR,Batouri,Batouri,Cameroon,CM,4.470833,14.356944
DLA,Douala,Douala,Cameroon,CM,4.016667,9.716667
DSC,Dschang,Dschang,Cameroon,CM,5.833333,10.091667
EBW,Ebolowa,Ebolowa,Cameroon,CM,2.85,11.183333
FOM,Foumban,Foumban,Cameroon,CM,5.633333,10.75
GOU,Garoua,Garoua,Cameroon,CM,9.333333,13.366667
KLE,Kaele,Kaele,Cameroon,CM,10.1,14.45
KOB,Koutaba,Koutaba,Cameroon,CM,5,10.008333
KBI,Kribi,Kribi,Cameroon,CM,2.866667,9.983333
VCC,Limbe,Limbe,Cameroon,CM,4.016667,9.2
MMF,Mamfe,Mamfe,Cameroon,CM,5.716667,9.3
NGE,Ngaoundere,Ngaoundere,Cameroon,CM,7.35,13.566667
NKS,Nkongsamba,Nkongsamba,Cameroon,CM,4.95,9.933333
NSI,Nsimalen International,Yaounde,Cameroon,CM,3.7225,11.553333
MVR,Salam,Maroua,Cameroon,CM,10.45,14.25
TKC,Tiko,Tiko,Cameroon,CM,4.089167,9.360556
GXX,Yagoua,Yagoua,Cameroon,CM,10.360278,15.237222
BTA,Yaound,Yaound,Cameroon,CM,4.583333,13.683333
YAO,Yaounde Airport,Yaounde,Cameroon,CM,3.833611,11.523611
YNF,Deer Lake/Stephenville,Corner Brook,Canada,CA,48.946944,-57.943889
ZMH,108 Mile Ranch,108 Mile Ranch,Canada,CA,51.736667,-121.333611
YXX,Abbotsford,Abbotsford,Canada,CA,49.025278,-122.360556
LAK,Aklavik,Aklavik,Canada,CA,68.216667,-135
AKV,Akulivik,Akulivik,Canada,CA,60.733333,-78.583333
YLT,Alert,Alert,Canada,CA,82.516667,-62.283333
YAL,Alert Bay,Alert Bay,Canada,CA,50.583333,-126.933333
ZAA,Alice Arm,Alice Arm,Canada,CA,55.483333,-129.483333
YTF,Alma,Alma,Canada,CA,48.55,-71.65
YAE,Alta Lake,Alta Lake,Canada,CA,50.116667,-1.983333
YEY,Amos,Amos,Canada,CA,48.583333,-78.116667
YAA,Anahim Lake,Anahim Lake,Canada,CA,52.466667,-125.3
YAX,Angling Lake,Angling Lake,Canada,CA,53.251944,-89.565
YAB,Arctic Bay,Arctic Bay,Canada,CA,73.037778,-85.1525
YYW,Armstrong,Armstrong,Canada,CA,50.297222,-88.971944
YNR,Arnes,"Arnes, MB",Canada,CA,50.836111,-96.957222
YEK,Arviat,Arviat,Canada,CA,61.116667,-94.05
YAF,Asbestos Hill,Asbestos Hill,Canada,CA,45.766667,-71.95
YZA,Ashcroft,Ashcroft,Canada,CA,50.716667,-121.283333
YIB,Atikokan,Atikokan,Canada,CA,48.75,-91.616667
YAT,Attawapiskat,Attawapiskat,Canada,CA,52.927778,-82.431389
YPJ,Aupaluk,Aupaluk,Canada,CA,59.066667,-69.55
YBG,Bagotville,Bagotville,Canada,CA,48.333333,-70.983333
YBC,Baie Comeau,Baie Comeau,Canada,CA,49.2,-68.266667
YBJ,Baie Johan Beetz,Baie Johan Beetz,Canada,CA,50.5,-62.916667
YBK,Baker Lake,Baker Lake,Canada,CA,64.3,-96.083333
YBF,Bamfield,Bamfield,Canada,CA,48.833333,-125.133333
YBA,Banff,Banff,Canada,CA,51.166667,-115.566389
ZBF,Bathurst,Bathurst,Canada,CA,47.6,-65.65
XBE,Bearskin Lake,Bearskin Lake,Canada,CA,53.966667,-91.05
YZC,Beatton River,Beatton River,Canada,CA,56.166667,-120.416667
YXQ,Beaver Creek,Beaver Creek,Canada,CA,52.733333,-1.116667
ZEL,Bella Bella,Bella Bella,Canada,CA,52.166667,-128.1
QBC,Bella Coola,"Bella Coola, BC",Canada,CA,52.3875,-126.595833
YBV,Berens River,Berens River,Canada,CA,52.433333,-97.033333
YIG,Big Bay Marina,Big Bay Marina,Canada,CA,50.383333,-125.133333
YYA,Big Bay Yacht Club,Big Bay Yacht Club,Canada,CA,50.4,-123.133333
YTL,Big Trout,Big Trout,Canada,CA,53.75,-90
YOS,Billy Bishop Regional,Owen Sound,Canada,CA,44.666667,-80.916667
YBI,Black Tickle,Black Tickle,Canada,CA,53.45,-55.733333
YBX,Blanc Sablon,Blanc Sablon,Canada,CA,51.433333,-57.183333
XBB,Blubber Bay,Blubber Bay,Canada,CA,49.8,-124.633333
YVB,Bonaventure,Bonaventure,Canada,CA,48.071111,-65.460278
YBY,Bonnyville,"Bonnyville, AB",Canada,CA,54.304167,-110.743611
YBN,Borden,Borden,Canada,CA,44.283333,-79.916667
YDT,Boundary Bay,Vancouver,Canada,CA,49.066667,-123
YBR,Brandon,Brandon,Canada,CA,49.909722,-99.950833
YDR,Broadview,Broadview,Canada,CA,50.333333,-102.5
YBT,Brochet,Brochet,Canada,CA,57.883333,-101.683333
XBR,Brockville,Brockville,Canada,CA,44.583333,-75.683333
ZBM,Bromont,Bromont,Canada,CA,45.297222,-72.747222
YBM,Bronson Creek,Bronson Creek,Canada,CA,56.7,-137.133333
YZM,Buchans,Buchans,Canada,CA,48.816667,-56.866667
YVT,Buffalo Narrows,Buffalo Narrows,Canada,CA,55.841944,-108.4175
YBH,Bull Harbour,Bull Harbour,Canada,CA,50.9,-127.916667
YPZ,Burns Lake,Burns Lake,Canada,CA,54.233333,-125.766667
YDB,Burwash Landings,Burwash Landings,Canada,CA,61.35,-139
YKZ,Buttonville Municipal,Toronto,Canada,CA,43.862222,-79.37
YYC,Calgary International Airport,"Calgary, AB",Canada,CA,51.113889,-114.020278
YCB,Cambridge Bay,Cambridge Bay,Canada,CA,69.116667,-105.133333
YBL,Campbell River,Campbell River,Canada,CA,49.95,-125.266667
YTE,Cape Dorset,Cape Dorset,Canada,CA,64.233333,-76.533333
YCJ,Cape St James,Cape St James,Canada,CA,51.933333,-131.016667
YCI,Caribou Island,Caribou Island,Canada,CA,47.366667,-85.816667
YCV,Cartierville,Cartierville,Canada,CA,45.516667,-73.716667
YRF,Cartwright,Cartwright,Canada,CA,53.716667,-57
YCG,Castlegar,Castlegar,Canada,CA,49.3,-117.633333
YAC,Cat Lake,Cat Lake,Canada,CA,51.666667,-91.833333
YLD,Chapleau,Chapleau,Canada,CA,47.833333,-83.4
YML,Charlevoix,"Murray Bay, NT",Canada,CA,47.5975,-70.223889
YCL,Charlo,Charlo,Canada,CA,47.990833,-66.330278
YHG,Charlottetown,Charlottetown,Canada,CA,52.766667,-56.1
YYG,Charlottetown,Charlottetown,Canada,CA,46.283333,-63.133333
XFZ,Charny,Quebec,Canada,CA,46.8,-71.25
XCM,Chatham,Chatham,Canada,CA,42.4,-82.183333
YCS,Chesterfield Inlet,Chesterfield Inlet,Canada,CA,63.333333,-90.7
YCQ,Chetwynd,Chetwynd,Canada,CA,55.7,-121.666667
YHR,Chevery,Chevery,Canada,CA,50.5,-59.5
YMT,Chibougamau,Chibougamau,Canada,CA,49.916667,-74.366667
CJH,Chilko Lake,Chilko Lake,Canada,CA,51.25,-1.083333
YCW,Chilliwack Municipal Airport,Chilliwack,Canada,CA,49.152778,-121.938889
YKU,Chisasibi,Chisasibi,Canada,CA,53.816667,-79
ZUM,Churchill Falls,Churchill Falls,Canada,CA,53.566667,-64.116667
YWQ,Chute-Des-Passes,Chute-Des-Passes,Canada,CA,43.083333,-79.066667
YLM,Clinton Creek,Clinton Creek,Canada,CA,64.466667,-140.733333
XCL,Cluff Lake,Cluff Lake,Canada,CA,58.383333,-109.516667
YCY,Clyde River,Clyde River,Canada,CA,70.483333,-68.516667
YCP,Co-op Point,Co-op Point,Canada,CA,57.083333,-103
CXH,Coal Harbour,Vancouver,Canada,CA,49.289722,-123.115833
YCN,Cochrane,Cochrane,Canada,CA,49.066667,-81.016667
YOD,Cold Lake,Cold Lake,Canada,CA,54.45,-110.166667
YKC,Collins Bay,Collins Bay,Canada,CA,58.233333,-103.666667
YCK,Colville Lake,Colville Lake,Canada,CA,67.316667,-125.666667
YQQ,Comox,Comox,Canada,CA,49.710833,-124.886667
YZS,Coral Harbour,Coral Harbour,Canada,CA,64.2,-83.366667
YCT,Coronation,Coronation,Canada,CA,52.075,-111.445278
YCF,Cortes Bay,Cortes Bay,Canada,CA,50.066667,-124.933333
YCA,Courtenay,Courtenay,Canada,CA,49.683333,-125
YYM,Cowley,Cowley,Canada,CA,49.566667,-114.083333
YXC,Cranbrook,Cranbrook,Canada,CA,49.612222,-115.781944
CFQ,Creston Valley Airport,Creston,Canada,CA,49.036944,-116.498333
YCR,Cross Lake,Cross Lake,Canada,CA,54.6,-97.766667
YDH,Daniels Harbour,Daniels Harbour,Canada,CA,67.75,-1.5
YDN,Dauphin,Dauphin,Canada,CA,51.1,-100.05
YDI,Davis Inlet,Davis Inlet,Canada,CA,55.933333,-60.95
YDA,Dawson City,Dawson City,Canada,CA,64.05,-139.083333
YDQ,Dawson Creek,Dawson Creek,Canada,CA,55.733333,-120.183333
YRD,Dean River,Dean River,Canada,CA,52.816667,-126.966667
YDL,Dease Lake,Dease Lake,Canada,CA,58.583333,-130.033333
YGY,Deception,Deception,Canada,CA,62.116667,-74.616667
YDF,Deer Lake,Deer Lake,Canada,CA,49.216667,-57.4
YVZ,Deer Lake,Deer Lake,Canada,CA,52.666667,-94.5
YWJ,Deline,Deline,Canada,CA,65.183333,-123.416667
YDS,Desolation Sound,Desolation Sound,Canada,CA,47.75,-122.25
DVK,Diavik,Diavik,Canada,CA,64.511389,-110.289444
YDG,Digby,Digby,Canada,CA,44.5,-66.166667
YPR,Digby Island,Prince Rupert,Canada,CA,54.283333,-130.45
YDX,Doc Creek,Doc Creek,Canada,CA,52.05,-128.083333
YZD,Downsview Airport,Toronto,Canada,CA,43.7425,-79.465556
DUQ,Duncan/Quam,Duncan/Quam,Canada,CA,48.783333,-123.7
YWF,Dwtown Waterfront H/P,Halifax,Canada,CA,44.65,-63.6
YXR,Earlton,Earlton,Canada,CA,47.7,-79.85
ZEM,East Main,East Main,Canada,CA,52.25,-78.516667
YEM,East Manitoulin,Manitowaning,Canada,CA,45.8475,-81.862778
YXD,Edmonton City Center Airport,Edmonton,Canada,CA,53.566667,-113.516667
YEG,Edmonton International,"Edmonton, AB",Canada,CA,53.309722,-113.579722
YET,Edson,Edson,Canada,CA,53.583333,-116.433333
YOA,Ekati,Ekati,Canada,CA,37.394444,25.2575
YEL,Elliot Lake,Elliot Lake,Canada,CA,46.35,-82.55
YPF,Esquimalt,Esquimalt,Canada,CA,48.433333,-123.4
YEN,Estevan,Estevan,Canada,CA,49.066667,-103
YEP,Estevan Point,Estevan Point,Canada,CA,49.383333,-126.55
YEU,Eureka,Eureka,Canada,CA,79.983333,-85.816667
YND,Executive Gatineau-Ottawa,Ottawa,Canada,CA,45.521389,-75.563611
YCZ,Fairmont Hot Springs,Fairmont Hot Springs,Canada,CA,50.330278,-115.873333
ZFW,Fairview,Fairview,Canada,CA,56.066667,-118.383333
YOE,Falher,Falher,Canada,CA,55.733333,-117.2
ZIF,Fallowfield Railway,Ottawa,Canada,CA,45.416667,-75.7
ZFA,Faro,Faro,Canada,CA,62.166667,-133.666667
YFO,Flin Flon,Flin Flon,Canada,CA,54.75,-101.833333
ZFD,Fond Du Lac,Fond Du Lac,Canada,CA,59.333333,-107.166667
YFG,Fontanges,Fontanges,Canada,CA,54.55,-71.183333
YOJ,Footner Lake,High Level,Canada,CA,58.616667,-117.166667
YFE,Forestville,Forestville,Canada,CA,48.733333,-69.1
YFA,Fort Albany,Fort Albany,Canada,CA,52.241667,-81.591667
YPY,Fort Chipewyan,Fort Chipewyan,Canada,CA,58.7,-111.15
YGH,Fort Good Hope,Fort Good Hope,Canada,CA,66.266667,-128.65
YFH,Fort Hope,Fort Hope,Canada,CA,51.55,-87.983333
YJF,Fort Liard,Fort Liard,Canada,CA,60.25,-123.466667
YMM,Fort Mcmurray,Fort Mcmurray,Canada,CA,56.65,-111.216667
ZFM,Fort Mcpherson,Fort Mcpherson,Canada,CA,67.433333,-134.883333
YYE,Fort Nelson,Fort Nelson,Canada,CA,58.833333,-122.583333
YFL,Fort Reliance,Fort Reliance,Canada,CA,62.711944,-109.162778
YFR,Fort Resolution,Fort Resolution,Canada,CA,61.183333,-113.683333
YER,Fort Severn,Fort Severn,Canada,CA,56,-87.633333
YFS,Fort Simpson,Fort Simpson,Canada,CA,61.75,-121.233333
YSM,Fort Smith,Fort Smith,Canada,CA,60.016667,-111.966667
YXJ,Fort St John,Fort St John,Canada,CA,56.233333,-120.733333
YFX,Fox Harbour,Fox Harbour,Canada,CA,52.366667,-55.683333
YFC,Fredericton,Fredericton,Canada,CA,45.866667,-66.533333
YCX,Gagetown,Gagetown,Canada,CA,45.783333,-66.15
YGA,Gagnon,Gagnon,Canada,CA,51.95,-68.133333
YQX,Gander International,Gander,Canada,CA,48.95,-54.566667
YGG,Ganges Harbor,Ganges Harbor,Canada,CA,48.85,-123.5
YGQ,Geraldton,Geraldton,Canada,CA,49.733333,-86.95
YGS,Germansen,Germansen,Canada,CA,55.616667,-124.833333
ZGS,Gethsemani,Gethsemani,Canada,CA,50.333333,-60.666667
YGX,Gillam,Gillam,Canada,CA,56.35,-94.716667
YGB,Gillies Bay,Gillies Bay,Canada,CA,49.7,-124.533333
YGM,Gimli,Gimli,Canada,CA,50.633333,-96.983333
YHK,Gjoa Haven,Gjoa Haven,Canada,CA,68.633333,-95.95
YPA,Glass Field,"Prince Albert, SK",Canada,CA,53.216667,-105.683333
YGO,Gods Narrows,Gods Narrows,Canada,CA,54.55,-94.483333
ZGI,Gods River,Gods River,Canada,CA,54.683333,-94.166667
YYR,Goose Bay,Goose Bay,Canada,CA,53.316667,-60.416667
YZE,Gore Bay,Gore Bay,Canada,CA,45.885278,-82.567778
YGE,Gorge Harbor,Gorge Harbor,Canada,CA,50.083333,-124.95
ZGF,Grand Forks,Grand Forks,Canada,CA,49.033333,-118.466667
YGC,Grande Cache,Grande Cache,Canada,CA,51.2,-96.45
YQU,Grande Prairie,Grande Prairie,Canada,CA,55.183333,-118.883333
XGL,Granville Lake,Granville Lake,Canada,CA,56.3,-100.5
DAS,Great Bear Lake,Great Bear Lake,Canada,CA,66,-1
YQM,Greater Moncton International Airport,Moncton,Canada,CA,46.112222,-64.678611
YGN,Greenway Sound,Greenway Sound,Canada,CA,50.85,-126.85
YZX,Greenwood,Greenwood,Canada,CA,44.983333,-64.916667
YGZ,Grise Fiord,Grise Fiord,Canada,CA,76.425,-82.945833
YHT,Haines Junction,Haines Junction,Canada,CA,60.75,-137.5
YHC,Hakai Pass,Hakai Pass,Canada,CA,51.733333,-128.116667
YHZ,Halifax International,"Halifax, NS",Canada,CA,44.880833,-63.508611
YUX,Hall Beach,Hall Beach,Canada,CA,68.783333,-81.233333
YHM,Hamilton,Hamilton,Canada,CA,43.166667,-79.933333
HNX,Hanna,Hanna,Canada,CA,51.631389,-111.904167
YHH,Harbor SPB,Campbell River,Canada,CA,50.016667,-1.25
ZRR,Harbour,Fiumicino,Canada,CA,67.45,-133.75
ZNA,Harbour,Nanaimo,Canada,CA,49.15,-1.916667
YTB,Hartley Bay,Hartley Bay,Canada,CA,53.416667,-129.25
YDJ,Hatchet Lake,Hatchet Lake,Canada,CA,58.616667,-1.666667
YGV,Havre St Pierre,Havre St Pierre,Canada,CA,50.25,-63.583333
YHY,Hay River,Hay River,Canada,CA,60.85,-115.766667
YHF,Hearst,Hearst,Canada,CA,49.683333,-83.666667
ZHP,High Prairie,High Prairie,Canada,CA,55.433333,-116.483333
YHI,Holman,Holman,Canada,CA,70.716667,-117.716667
YHE,Hope,Hope,Canada,CA,49.383333,-121.433333
YHO,Hopedale,Hopedale,Canada,CA,55.466667,-60.216667
YHN,Hornepayne,Hornepayne,Canada,CA,49.216667,-84.783333
YHB,Hudson Bay,Hudson Bay,Canada,CA,52.816667,-102.311389
YGT,Igloolik,Igloolik,Canada,CA,69.4,-81.816667
ZUC,Ignace,Ignace,Canada,CA,49.5,-91.833333
YGR,Iles De La Madeleine,Iles De La Madeleine,Canada,CA,47.416667,-61.866667
ILF,Ilford,Ilford,Canada,CA,56.066667,-95.583333
YDC,Industrial Airport,Drayton Valley,Canada,CA,53.216667,-114.983333
YPH,Inukjuak,Inukjuak,Canada,CA,58.45,-78.1
YEV,Inuvik/mike Zubko,Inuvik,Canada,CA,68.304167,-133.482778
TIL,Inverlake,Inverlake,Canada,CA,50.5,-1.033333
YFB,Iqaluit,Iqaluit,Canada,CA,63.75,-68.55
YIV,Island Lk/Garden Hill,Island Lk/Garden Hill,Canada,CA,54.208333,-94.791667
YIK,Ivujivik,Ivujivik,Canada,CA,62.416667,-75.9
YXE,J.G. Diefenbaker International Airport,Saskatoon,Canada,CA,52.166667,-106.683333
YWG,James Armstrong Richardson International Airport,Winnipeg,Canada,CA,49.91,-97.24
YJP,Jasper-hinton,Jasper-hinton,Canada,CA,53.319167,-117.753056
ZJG,Jenpeg,Jenpeg,Canada,CA,54.6,-97.666667
YJO,Johnny Mountain,Johnny Mountain,Canada,CA,56.666667,-131.116667
YKA,Kamloops,Kamloops,Canada,CA,50.716667,-120.416667
XGR,Kangiqsualujjuaq,Kangiqsualujjuaq,Canada,CA,58.533333,-65.9
YWB,Kangiqsujuaq,Kangiqsujuaq,Canada,CA,61.6,-71.966667
YKG,Kangirsuk,Kangirsuk,Canada,CA,60.027222,-69.999167
YYU,Kapuskasing,Kapuskasing,Canada,CA,49.416667,-82.433333
XKS,Kasabonika,Kasabonika,Canada,CA,53.533333,-88.75
ZKE,Kaschechewan,Kaschechewan,Canada,CA,52.281944,-81.678333
YAU,Kattiniq/Donaldson,Kattiniq,Canada,CA,61.662778,-73.321389
KEW,Keewaywin,Keewaywin,Canada,CA,49.766667,-94.55
ZKG,Kegaska,Kegaska,Canada,CA,50.188889,-61.291667
YLW,Kelowna Airport,"Kelowna, BC",Canada,CA,49.956111,-119.377778
KES,Kelsey,Kelsey,Canada,CA,56.25,-96.966667
XKO,Kemano,Kemano,Canada,CA,53.566667,-127.933333
YKI,Kennosao Lake,Kennosao Lake,Canada,CA,58.977222,23.863333
YQK,Kenora,Kenora,Canada,CA,49.816667,-94.366667
YKJ,Key Lake,Key Lake,Canada,CA,57.25,-105.6
YXI,Killaloe,Killaloe,Canada,CA,45.55,-77.416667
XBW,Killineq,Killineq,Canada,CA,42.65,-80.816667
YQE,Kimberley,Kimberley,Canada,CA,49.683333,-115.983333
YLC,Kimmirut,Kimmirut/Lake Harbour,Canada,CA,62.85,-69.883333
YKY,Kindersley,Kindersley,Canada,CA,51.45,-109.166667
KIF,Kingfisher Lake,Kingfisher Lake,Canada,CA,53.033333,-89.833333
YGK,Kingston,Kingston,Canada,CA,44.233333,-76.583333
KNY,Kinoosao,Kinoosao,Canada,CA,-1.25,36.7
YKX,Kirkland Lake,Kirkland Lake,Canada,CA,48.210278,-79.981389
YKF,Kitchener-Waterloo Regional,Kitchener/Waterloo,Canada,CA,43.460833,-80.378611
YKK,Kitkatla,Kitkatla,Canada,CA,53,-130
YKT,Klemtu,Klemtu,Canada,CA,52.6,-128.516667
YKE,Knee Lake,Knee Lake,Canada,CA,55.05,-94.666667
KNV,Knights Inlet,Knights Inlet,Canada,CA,60.583333,-64.583333
YBB,Kugaaruk,Kugaaruk,Canada,CA,68.886111,-89.85
YCO,Kugluktuk,Kugluktuk/Coppermine,Canada,CA,67.833333,-115.083333
YVP,Kuujjuaq,Kuujjuaq,Canada,CA,58.15,-68.45
YGW,Kuujjuarapik,Kuujjuarapik,Canada,CA,55.266667,-77.783333
YGL,La Grande,La Grande,Canada,CA,53.583333,-77.683333
YTM,La Macaza,Mont Tremblant,Canada,CA,46.25,-74.583333
YVC,La Ronge,La Ronge,Canada,CA,55.083333,-105.333333
SSQ,La Sarre,La Sarre,Canada,CA,48.916667,-79.166667
ZLT,La Tabatiere,La Tabatiere,Canada,CA,51,-59
YLQ,La Tuque,La Tuque,Canada,CA,47.416667,-72.8
YLB,Lac Biche,Lac Biche,Canada,CA,54.756667,-112.0025
XLB,Lac Brochet,Lac Brochet,Canada,CA,58.6175,-101.468889
YLF,LaForges,LaForges,Canada,CA,54.183333,-72.483333
YAR,Lagrande 3,Lagrande 3,Canada,CA,53.55,-76.2
YAH,Lagrande 4,Lagrande 4,Canada,CA,53.75,-73.65
YLA,Langara,Langara,Canada,CA,54.233333,-133
YLY,Langley Regional,Langley,Canada,CA,49.100833,-122.630833
YLH,Lansdowne House,Lansdowne House,Canada,CA,52.216667,-87.916667
LRQ,Laurie River,Laurie River,Canada,CA,56.25,-101.3
XLF,Leaf Bay,Leaf Bay,Canada,CA,59,-69
YLR,Leaf Rapids,Leaf Rapids,Canada,CA,56.45,-100
YLS,Lebel-Sur-Quevillon,Lebel-Sur-Quevillon,Canada,CA,49.066667,-77
YYZ,Lester B. Pearson International,Toronto,Canada,CA,43.677222,-79.630556
YQL,Lethbridge,Lethbridge,Canada,CA,49.633333,-112.8
ZGR,Little Grand Rapids,Little Grand Rapids,Canada,CA,52.066667,-95.466667
YLL,Lloydminster,"Lloydminster, AB",Canada,CA,53.309167,-110.0725
YXU,London International,London,Canada,CA,43.035556,-81.153889
YLX,Long Point,Long Point,Canada,CA,59.35,-94.683333
YWO,Lupin,Lupin,Canada,CA,65.758889,-111.248889
YSG,Lutselke,Lutselke/Snowdrift,Canada,CA,62.4,-110.75
YAJ,Lyall Harbour,Lyall Harbour,Canada,CA,48.8,-1.2
YYL,Lynn Lake,Lynn Lake,Canada,CA,56.866667,-101.066667
XMP,Macmillan Pass,Macmillan Pass,Canada,CA,62.866667,-135.916667
YDK,Main Duck Island,Main Duck Island,Canada,CA,43.933333,-76.616667
YMN,Makkovik,Makkovik,Canada,CA,55.083333,-59.166667
YMG,Manitouwadge,Manitouwadge,Canada,CA,49.133333,-85.733333
YMW,Maniwaki,Maniwaki,Canada,CA,46.272778,-75.990556
YAQ,Maple Bay,Maple Bay,Canada,CA,48.816667,-1.6
YSP,Marathon,Marathon,Canada,CA,48.75,-86.35
YMC,Maricourt Airstrip,Maricourt Airstrip,Canada,CA,56.516667,-71.066667
ZMT,Masset,Masset,Canada,CA,54.016667,-132.166667
YNM,Matagami,Matagami,Canada,CA,49.766667,-77.8
YME,Matane,Matane,Canada,CA,48.85,-67.55
YMA,Mayo,Mayo,Canada,CA,63.616667,-135.866667
YLJ,Meadow Lake,Meadow Lake,Canada,CA,54.125278,-108.522778
YXH,Medicine Hat,Medicine Hat,Canada,CA,50.018889,-110.720833
YMB,Merritt,Merritt,Canada,CA,50.116667,-120.783333
YMR,Merry Island,Merry Island,Canada,CA,47.85,3.683333
YYQ,Metropolitan Area,"Churchill, Manitoba",Canada,CA,58.739167,-94.065
YMI,Minaki,Minaki,Canada,CA,49.983333,-94.733333
YAV,Miners Bay,Miners Bay,Canada,CA,66.5,-1.4
YLP,Mingan,Mingan,Canada,CA,50.283333,-64.15
YMX,Mirabel,Montreal,Canada,CA,45.666667,-74.033333
YCH,Miramichi,Miramichi,Canada,CA,47.166667,-65
YYY,Mont Joli,Mont Joli,Canada,CA,48.6,-68.2
YMF,Montagne Harbor,Montagne Harbor,Canada,CA,48.816667,-123.2
YUL,Montral-pierre Elliott Trudeau International Airport,Montreal,Canada,CA,45.470556,-73.740833
YMJ,Moose Jaw / Air Vice Marshal C. M. Mcewen Airport,Moose Jaw,Canada,CA,50.330278,-105.559167
YMO,Moosonee,"Moosonee, ON",Canada,CA,51.291111,-80.607778
YHD,Municipal,Dryden,Canada,CA,49.783333,-92.833333
YAG,Municipal,Fort Frances,Canada,CA,48.6,-93.4
YQA,Muskoka,Muskoka,Canada,CA,44.974722,-79.303333
MSA,Muskrat Dam,Muskrat Dam,Canada,CA,53.833333,-92
YBS,Musselwhite,Opapamiska Lake,Canada,CA,-39.8,176.683333
YDP,Nain,Nain,Canada,CA,56.533333,-61.666667
YQN,Nakina,Nakina,Canada,CA,50.166667,-86.7
YED,Namao Fld,Edmonton,Canada,CA,53.319444,-113.6
ZNU,Namu,"Namu, BC",Canada,CA,51.85,-127.866667
YCD,Nanaimo Arpt,Nanaimo,Canada,CA,49.166667,-123.933333
YSR,Nanisivik,Nanisivik,Canada,CA,63.066667,-71.416667
YNA,Natashquan,Natashquan,Canada,CA,50.183333,-61.783333
YNP,Natuashish,Natuashish,Canada,CA,55.912778,-61.185278
ZNG,Negginan,Negginan,Canada,CA,53,-97.266667
YNS,Nemiscau,Nemiscau,Canada,CA,51.7,-76.166667
YBD,New Westminster,New Westminster,Canada,CA,46.25,-60.083333
YNI,Nitchequon,Nitchequon,Canada,CA,53.197222,-70.908333
YNK,Nootka Sound,Nootka Sound,Canada,CA,50.083333,-125.916667
YVQ,Norman Wells,Norman Wells,Canada,CA,65.283333,-126.8
YQW,North Battleford,North Battleford,Canada,CA,52.766667,-108.25
YYB,North Bay,North Bay,Canada,CA,46.366667,-79.416667
YNO,North Spirit Lake,"North Spirit Lake, ON",Canada,CA,52.490556,-92.973056
YNE,Norway House,Norway House,Canada,CA,53.983333,-97.8
NWP,NS,Argentia,Canada,CA,47.3,-54
YRT,Nuuk,"Rankin Inlet, NT",Canada,CA,62.811389,-92.115833
YDW,Obre Lake,Obre Lake,Canada,CA,8.8,-80.283333
ZOF,Ocean Falls,Ocean Falls,Canada,CA,52.283333,-127.766667
YOG,Ogoki,Ogoki,Canada,CA,51.633333,-85.95
YOC,Old Crow,Old Crow,Canada,CA,67.566667,-139.85
ZFB,Old Fort Bay,Old Fort Bay,Canada,CA,51.583333,-57.916667
YOO,Oshawa,Oshawa,Canada,CA,43.922778,-78.895
YOW,Ottawa Macdonald-Cartier International,Ottawa,Canada,CA,45.3225,-75.669167
YOH,Oxford House,Oxford House,Canada,CA,54.95,-95.283333
YIF,Pakuashipi,Pakuashipi,Canada,CA,51.216667,-58.666667
YXP,Pangnirtung,Pangnirtung,Canada,CA,66.15,-65.733333
YDE,Paradise River,Paradise River,Canada,CA,53.433333,-57.233333
YPD,Parry Sound,Parry Sound,Canada,CA,45.35,-80.033333
YPC,Paulatuk,Paulatuk,Canada,CA,62.35,-124.083333
YPE,Peace River,Peace River,Canada,CA,56.233333,-117.433333
YPO,Peawanuck,Peawanuck,Canada,CA,54.983333,-85.433333
YTA,Pembroke And Area Apt,Pembroke,Canada,CA,45.864444,-77.251667
YQS,Pembroke Area Mncpl,St Thomas,Canada,CA,42.77,-81.11
YPT,Pender Harbor,Pender Harbor,Canada,CA,49.5,-124.033333
YYF,Penticton,Penticton,Canada,CA,49.466667,-119.6
YWA,Petawawa,Petawawa,Canada,CA,45.9,-77.283333
YPQ,Peterborough,Peterborough,Canada,CA,44.23,-78.363333
YPL,Pickle Lake,Pickle Lake,Canada,CA,51.5,-90.15
YPM,Pikangikum,Pikangikum,Canada,CA,51.816667,-94
PIW,Pikwitonei,Pikwitonei,Canada,CA,55.583333,-97.15
WPC,Pincher Creek,Pincher Creek,Canada,CA,49.483333,-113.95
ZPO,Pine House,Pine House,Canada,CA,55.516667,-106.6
YPP,Pine Point,Pine Point,Canada,CA,61.016667,-114.25
YNL,Points North Landing,"Points North Landing, Saskatchewan",Canada,CA,58.275,-104.081111
YIO,Pond Inlet,Pond Inlet,Canada,CA,72.683333,-78
YHP,Poplar Hill,Poplar Hill,Canada,CA,52.083333,-94.3
XPP,Poplar River,Poplar River,Canada,CA,53,-97.4
YPB,Port Alberni,Port Alberni,Canada,CA,49.233333,-124.8
YZT,Port Hardy,Port Hardy,Canada,CA,50.683333,-127.366667
YPS,Port Hawkesbury,Port Hawkesbury,Canada,CA,45.616667,-61.35
YHA,Port Hope Simpson,Port Hope Simpson,Canada,CA,52.533333,-56.3
YMP,Port McNeil,Port McNeil,Canada,CA,50.583333,-127.1
YPN,Port Menier,Port Menier,Canada,CA,49.833333,-64.283333
YPI,Port Simpson,Port Simpson,Canada,CA,54.55,-130.416667
YPG,Portage La Prairie,Portage La Prairie,Canada,CA,49.983333,-98.3
YSO,Postville,Postville,Canada,CA,54.916667,-59.766667
WPL,Powell Lake,Powell Lake,Canada,CA,50.183333,-124.4
YPW,Powell River,Powell River,Canada,CA,49.883333,-124.55
XDV,Pr. George Rail Stn,Prince George,Canada,CA,53.916667,-1.766667
XDW,Pr. Rupert Rail Stn,Prince Rupert,Canada,CA,54.316667,-1.333333
YXS,Prince George,Prince George,Canada,CA,53.883333,-122.683333
